,place_id,name,main_category,phone,address,lat,lng,House_number,Street,Ward,District,City,progress
0,ChIJcWJ70U6rNTERxFCKqdDKXrw,"Joily Coffee, Tea & Bakery",Quán cà phê,0703 666 668,"Joily Coffee, Tea & Bakery, A10 Ng. Đức Hạnh 3, Khu đô thị Nam Trung Yên, Cầu Giấy, Hà Nội 11312",,,,,,,,True
1,ChIJKbnmWQApdTERwsotmjhioIE,Du Miên Garden Cafe,Quán cà phê,028 3894 5555,"Du Miên Garden Cafe, 7 Đ. Phan Văn Trị, Phường 10, Gò Vấp, Thành phố Hồ Chí Minh",10.83218,106.67366,,Đường Phan Văn Trị,Phường 10,Quận Gò Vấp,Hồ Chí Minh,True
13,ChIJbUggYwcpdTERceZS9v1RSFY,Country Houses Coffee,Quán cà phê,0903 704 399,"Country Houses Coffee, 18 Đ. Phan Văn Trị, Phường 10, Gò Vấp, Thành phố Hồ Chí Minh",10.77402,106.70419,42,Đường Nguyễn Huệ,Phường Bến Nghé,Quận 1,Hồ Chí Minh,True
23,ChIJ32cXs5erNTERsqdVf0cP-mg,Xofa Café & Bistro,Quán cà phê,024 3717 1555,"Xofa Café & Bistro, 14 P. Tống Duy Tân, Hàng Bông, Hoàn Kiếm, Hà Nội",10.02463,105.76727,49,Đường 3 Tháng 2,Phường Xuân Khánh,Quận Ninh Kiều,Cần Thơ,True
25,ChIJiXZG2IqrNTERdSRq4nRh9U4,"Lofita - Chuỗi quán Trà & Cà Phê (Cafe) Ngon, View Đẹp Nhất Hà Nội",Quán cà phê,1800 6503,"Lofita - Chuỗi quán Trà & Cà Phê (Cafe) Ngon, View Đẹp Nhất Hà Nội, 225 P. Trần Quốc Hoàn, Dịch Vọng Hậu, Cầu Giấy, Hà Nội",10.02986,105.78677,31,Đường Ngô Đức Kế,Phường Tân An,Quận Ninh Kiều,Cần Thơ,True
28,ChIJ-ccIKnwvdTERcwhsdEeX6cs,Cafe Cô Ba - Đồng Khởi,Quán cà phê,,"Cafe Cô Ba - Đồng Khởi, 4-6 Đ. Đồng Khởi, Bến Nghé, Quận 1, Thành phố Hồ Chí Minh 700000",10.03094,105.77833,81,Đường Nguyễn Việt Hồng,Phường An Phú,Quận Ninh Kiều,Cần Thơ,True
40,ChIJj1y29UYvdTERjGrWH9smE-U,Katinat Saigon Kafe,Quán cà phê,028 3825 6679,"Katinat Saigon Kafe, 91 Đ. Đồng Khởi, Bến Nghé, Quận 1, Thành phố Hồ Chí Minh 70000",10.03289,105.78684,,,Phường Tân An,Quận Ninh Kiều,Cần Thơ,True
47,ChIJ5Q3WZaWrNTERYpWt95xQn2Q,THAIYEN CAFE - CAFEYEN - Quán Thánh,Quán cà phê,0989 750 180,"THAIYEN CAFE - CAFEYEN - Quán Thánh, 184 P. Quán Thánh, Quán Thánh, Ba Đình, Hà Nội",10.00913,105.80165,65,Đường Mai Chí Thọ,Phường Phú Thứ,Quận Cái Răng,Cần Thơ,True
49,ChIJpap4NZGrNTERU1baVzYXQZo,Cộng Cà Phê,Quán cà phê,0911 811 132,"Cộng Cà Phê, 68 P. Quán Sứ, Trần Hưng Đạo, Hoàn Kiếm, Hà Nội",21.06598,105.74502,12,Ngõ 12 Phú Minh,Phường Minh Khai,Quận Bắc Từ Liêm,Hà Nội,True
51,ChIJE5-utYgXQjERgi6BGTJ5WEI,Wind Garden Coffee,Quán cà phê,0914 288 818,"Wind Garden Coffee, 72 Lê Mạnh Trinh, Phước Mỹ, Sơn Trà, Đà Nẵng 550000",,,,,,,,True
56,ChIJoSenAIQpdTEREL7_vv33scU,Phen’s Coffee,Quán cà phê,0396 439 014,"Phen’s Coffee, 142 Nguyễn Văn Công, Phường 3, Gò Vấp, Thành phố Hồ Chí Minh",31.54905,-82.84922,,,,,Coffee,True
66,ChIJKyYzwU8ndTERA1zCwYeytGQ,Bonjour cafe the art,Quán cà phê,0387 384 548,"Bonjour cafe the art, 42 Đ. Thảo Điền, Thảo Điền, Quận 2, Thành phố Hồ Chí Minh 70000",,,,,,,,True
74,ChIJtdMTz6JjoDERuwhioFmU8GE,The Coffee House - Hòa Bình (Cần Thơ),Quán cà phê,028 7303 9079,"The Coffee House - Hòa Bình (Cần Thơ), 8 Đại lộ Hoà Bình, P, Ninh Kiều, Cần Thơ",10.05035,105.76714,203,Đường Nguyễn Đệ,Phường An Hòa,Quận Ninh Kiều,Cần Thơ,True
75,ChIJw7k36kYvdTERJ9L8Dd7o-0U,Cà phê Sài Gòn Ơi,Quán cà phê,0938 531 517,"Cà phê Sài Gòn Ơi, 42 Đ. Nguyễn Huệ, Bến Nghé, Quận 1, Thành phố Hồ Chí Minh",10.03936,105.7843,64E,Hẻm 18 Đường Xô Viết Nghệ Tĩnh,Phường Tân An,Quận Ninh Kiều,Cần Thơ,True
82,ChIJUWgrCqZioDERlNGHIYEhr60,Nhà Gỗ Cafe - Wood House Coffee Cần Thơ,Quán cà phê,0899 503 919,"Nhà Gỗ Cafe - Wood House Coffee Cần Thơ, 40 Đ. Phạm Ngọc Thạch, Cái Khế, Ninh Kiều, Cần Thơ 900000",10.03855,105.78396,48,Đường Xô Viết Nghệ Tĩnh,Phường An Cư,Quận Ninh Kiều,Cần Thơ,True
85,ChIJW8bVvUwvdTERMK3h6j6UBuk,Beanthere Cafe,Quán cà phê,0987 168 584,"Beanthere Cafe, 42 Hồ Hảo Hớn, Phường Cô Giang, Quận 1, Thành phố Hồ Chí Minh 70000",10.01695,105.75293,370B/3,Tổ 3 Khu Vực 6,Phường An Khánh,Quận Ninh Kiều,Cần Thơ,True
95,ChIJx_s4ZTiIoDERJhnCubUmeEM,Cà Phê Thời Gian,Quán cà phê,0901 062 020,"Cà Phê Thời Gian, 35 Đ. Nguyễn Văn Linh, Hưng Lợi, Ninh Kiều, Cần Thơ",10.02499,105.77381,2,Đường Trần Văn Hoài,Phường Xuân Khánh,Quận Ninh Kiều,Cần Thơ,True
98,ChIJy2NIVoarNTER1maj2Dt1S-Q,Căng-tin Caphe,Quán cà phê,0372 099 359,"Căng-tin Caphe, Đối diện số, 31 Ngh. 180/29 P. Kim Hoa, Phương Liên, Đống Đa, Hà Nội",10.01908,105.7625,148,Đường 3 Tháng 2,Phường Hưng Lợi,Quận Ninh Kiều,Cần Thơ,True
101,ChIJ18tvsaFioDERsEF9qhIjZj8,HIGHLANDS COFFEE - Sense City,Quán cà phê,0292 3827 129,"HIGHLANDS COFFEE - Sense City, 1 Đại lộ Hoà Bình, Tân An, Ninh Kiều, Cần Thơ",10.02837,105.75846,2,Đường Số 6,Phường An Khánh,Quận Ninh Kiều,Cần Thơ,True
102,ChIJ4yCUNwwmdTER8t4ojhQavrA,Quán cafe đẹp - AA Coffee,Quán cà phê,0902 900 816,"Quán cafe đẹp - AA Coffee, 102 Cao Đức Lân, Khu đô thị An Phú An Khánh, Quận 2, Thành phố Hồ Chí Minh",10.02826,105.75343,6,Đường Nguyễn Văn Linh,Phường An Khánh,Quận Ninh Kiều,Cần Thơ,True
113,ChIJT9IBetEpdTERv1WHWPOkMLo,Oromia Coffee & Lounge,Quán cà phê,0908 861 136,"Oromia Coffee & Lounge, 85 Phan Kế Bính, Đa Kao, Quận 1, Thành phố Hồ Chí Minh",10.03594,105.76323,27A,Hẻm 388J Đường Nguyễn Văn Cừ,Phường An Khánh,Quận Ninh Kiều,Cần Thơ,True
122,ChIJL6pXqX6rNTERcJ19UWhe1Bc,Bốt Cà Phê,Quán cà phê,0981 358 758,"Bốt Cà Phê, 18b Ng. 18 P. Võ Văn Dũng, Chợ Dừa, Đống Đa, Hà Nội",10.03258,105.78422,89A,Đường Võ Văn Tần,Phường Tân An,Quận Ninh Kiều,Cần Thơ,True
123,ChIJgaIQ76xioDERj6ONtM0nc5A,Nesta Coffee,Quán cà phê,0292 3831 216,"Nesta Coffee, 9C Trần Phú, Cái Khế, Ninh Kiều, Cần Thơ",10.03667,105.75813,,Đường Nguyễn Văn Cừ Nối Dài,Phường An Khánh,Quận Ninh Kiều,Cần Thơ,True
124,ChIJUew2yEWJoDER25-sskI9C1w,CHILL COFFEE,Quán cà phê,0903 963 688,"CHILL COFFEE, 49 Đ. 3 Tháng 2, Xuân Khánh, Ninh Kiều, Cần Thơ",10.03661,105.77186,25,Đường Mậu Thân,Phường Xuân Khánh,Quận Ninh Kiều,Cần Thơ,True
125,ChIJy1VzIUmrNTERX26zMhtwSgQ,Lofita Cafe,Quán cà phê,1800 6503,"Lofita Cafe, 30A Trần Hưng Đạo, Phan Chu Trinh, Hoàn Kiếm, Hà Nội 11019",10.03525,105.78606,6,Đại Lộ Hòa Bình,Phường An Cư,Quận Ninh Kiều,Cần Thơ,True
126,ChIJ72s1_bFjoDERUgSKI9kxCYE,VADO Canteen - Nhà Hàng Nhỏ Vui Vẻ,Nhà hàng món lẩu,0799 637 739,"VADO Canteen - Nhà Hàng Nhỏ Vui Vẻ, 42 Đ. Đề Thám, Tân An, Ninh Kiều, Cần Thơ",10.06054,105.78173,8,Đường Phạm Công Trứ,Phường Cái Khế,Quận Ninh Kiều,Cần Thơ,True
127,ChIJM19gduurNTERptHpW_ybbGo,T.Coffee 14 Ngô Quyền,Quán cà phê,0942 893 686,"T.Coffee 14 Ngô Quyền, 14 P. Ngô Quyền, Tràng Tiền, Hoàn Kiếm, Hà Nội 10000",10.00574,105.74298,2,Đường D2,Phường An Bình,Quận Ninh Kiều,Cần Thơ,True
128,ChIJM15XtJCJoDERKrjTOAi9PEY,Hoa Yên An Bình,Quán cà phê,0919 462 904,"Hoa Yên An Bình, A3 khu dân cư 923, An Bình, Ninh Kiều, Cần Thơ 27000",10.03349,105.78338,14,Đường Đề Thám,Phường An Cư,Quận Ninh Kiều,Cần Thơ,True
129,ChIJPSJDgCGIoDEROvrrCgGNMGA,CÀ PHÊ MILANO NGỌC THUÝ 1,Quán cà phê,0943 473 309,"CÀ PHÊ MILANO NGỌC THUÝ 1, 81 Đ. Nguyễn Việt Hồng, An Phú, Ninh Kiều, Cần Thơ 92000",43.76052,1.89396,,,La Caïphe,Puybegon,Tarn,True
131,ChIJC5JFZCGIoDERs9-xioqsHxg,Coffee Fresh,Quán cà phê,0292 3735 245,"Coffee Fresh, Hẻm 15 Đ. Trần Văn Hoài, Xuân Khánh, Ninh Kiều, Cần Thơ 94000",10.01362,105.76284,3,Đường Trần Hoàng Na,Phường Hưng Lợi,Quận Ninh Kiều,Cần Thơ,True
132,ChIJYWgKnI-rNTERBK7N4VUOAbk,Cafe Mai,Quán cà phê,0936 606 789,"Cafe Mai, 75 P. Trần Nhân Tông, Nguyễn Du, Hai Bà Trưng, Hà Nội",10.04106,105.76707,39,Đường Mậu Thân,Phường An Hòa,Quận Ninh Kiều,Cần Thơ,True
133,ChIJa8eWrGyIoDERJJdb_cEoSp8,Cafe Sành Điệu 2,Quán cà phê,0932 964 157,"Cafe Sành Điệu 2, Đ. Nguyễn Tri Phương, Phường An Khánh, Ninh Kiều, Cần Thơ",10.01362,105.76284,,Đường Trần Hoàng Na,Phường Hưng Lợi,Quận Ninh Kiều,Cần Thơ,True
134,ChIJz1_Q5lljoDERugYFVbXbnq4,GÓC KAFÉ,Quán cà phê,0907 121 316,"GÓC KAFÉ, 127 Nguyễn Trãi, Tân An, Ninh Kiều, Cần Thơ 900000",10.03515,105.77255,A5,Hẻm 21B Đường Cao Thắng,Phường Xuân Khánh,Quận Ninh Kiều,Cần Thơ,True
155,ChIJJ8InsOwpdTERKzAX9Kfc8Wc,Zeraffe Coffee,Quán cà phê,,"Zeraffe Coffee, 226/36 Đ. Lê Văn Sỹ, Phường 1, Tân Bình, Thành phố Hồ Chí Minh 700000",21.02274,105.84531,2,Phố Trần Bình Trọng,Phường Trần Hưng Đạo,Quận Hoàn Kiếm,Hà Nội,True
165,ChIJ-4t8WfiJoDERQCjS2A_fu7w,Mộc Nhiên Coffee,Quán cà phê,0939 967 888,"2QM7+PVF Mộc Nhiên Coffee, Hẻm 51, Phường An Khánh, Ninh Kiều, Cần Thơ",10.05635,105.77817,60,Đường Nguyễn Văn Cừ,Phường Cái Khế,Quận Ninh Kiều,Cần Thơ,True
167,ChIJw3D-6A-JoDERbEgBFsjHz3w,Mộng Coffee,Quán cà phê,0907 695 073,"Mộng Coffee, 57A4 Đ. Hồ Bún Xáng, Xuân Khánh, Ninh Kiều, Cần Thơ",10.0271,105.74819,28,Đường Nguyễn Văn Cừ,Phường An Bình,Quận Ninh Kiều,Cần Thơ,True
169,ChIJ92g2xnSJoDERK_XtYtgT7L8,A Coffee and Flower Garden,Quán cà phê,0911 678 910,"A Coffee and Flower Garden, 132 Nguyễn Văn Cừ Nối Dài, Phường An Khánh, Ninh Kiều, Cần Thơ",10.04532,105.77962,2,Đường Hùng Vương,Phường Thới Bình,Quận Ninh Kiều,Cần Thơ,True
170,ChIJ7d7KYryrNTER7Qc5Rzc7XyQ,Maison d'été,Quán cà phê,0915 450 572,"2R6M+52F Maison d'été, Trung Tự, Đống Đa, Hà Nội",10.01403,105.76297,151,Đường Trần Hoàng Na,Phường Hưng Lợi,Quận Ninh Kiều,Cần Thơ,True
171,ChIJFSU86Z2JoDERBJQbtmbsy6g,Prince Koi Coffee,Quán cà phê,0979 007 795,"Prince Koi Coffee, 467 Đ. 30 Tháng 4, Hưng Lợi, Ninh Kiều, Cần Thơ 90000",10.03592,105.75738,,,Phường An Khánh,Quận Ninh Kiều,Cần Thơ,True
172,ChIJmUy_VS2tNTERH8ugHtNt83s,Anh Hai Sài Gòn Cà Phê,Quán cà phê,0348 399 598,"Anh Hai Sài Gòn Cà Phê, P107 K10B, Khu tập thể Bách Khoa, Hai Bà Trưng, Hà Nội",10.02332,105.75621,104,Đường Nguyễn Hiền,Phường An Khánh,Quận Ninh Kiều,Cần Thơ,True
174,ChIJvXKlkFmJoDERfnXqmoiucIY,MK Coffee and Tea,Quán cà phê,,"MK Coffee and Tea, 7a1 Đ bờ kè Hồ Bún Xáng, Phường An Khánh, Ninh Kiều, Cần Thơ",10.03663,105.76652,,Hẻm 51 Nguyễn Văn Cừ,Phường An Khánh,Quận Ninh Kiều,Cần Thơ,True
175,ChIJb2bin4eJoDER8NSJU2fUwpM,Cà phê Phương Hân,Quán cà phê,,"Cà phê Phương Hân, 18 Đ. Nguyễn Văn Linh, Hưng Lợi, Ninh Kiều, Cần Thơ",31.54905,-82.84922,,,,,Coffee,True
176,ChIJRQ3U8YyrNTERlzVbZ5o_rNM,Big Ben Cafe,Quán cà phê,,"Big Ben Cafe, 30 P. Tuệ Tĩnh, Bùi Thị Xuân, Hai Bà Trưng, Hà Nội",10.03226,105.77408,,,Phường Xuân Khánh,Quận Ninh Kiều,Cần Thơ,True
178,ChIJF4ZpWdyJoDERzRN84j08ma8,Cà phê Sữa Đá,Quán cà phê,0859 995 359,"Cà phê Sữa Đá, 79/21 Hùng Vương, An Cư, Ninh Kiều, Cần Thơ",10.01984,105.76321,172B,Đường 3 Tháng 2,Phường Hưng Lợi,Quận Ninh Kiều,Cần Thơ,True
183,ChIJI2emurKJoDER5uyUUtCX2Mc,Cà phê Black Gold,Quán cà phê,0772 822 546,"Cà phê Black Gold, 299 Võ Văn Kiệt, An Thới, Ninh Kiều, Cần Thơ",50.1846,3.50233,,Place du Béart,,Solesmes,Nord,True
187,ChIJ-TMBQVGIoDERwSrR51a4ues,Cafe Milano Hồng Phát,Quán cà phê,0939 311 660,"Cafe Milano Hồng Phát, KDC Hồng Phát, Đ.Xuân Thủy, An Bình, Ninh Kiều, Cần Thơ",10.03223,105.7503,335,Đường Nguyễn Văn Linh,Phường An Khánh,Quận Ninh Kiều,Cần Thơ,True
188,ChIJvwKH-CGJoDERV0c_hMgygTw,CÀ PHÊ NHÀ PHẠM,Quán cà phê,0772 170 707,"CÀ PHÊ NHÀ PHẠM, 219 Đường số 3, khu CBGV, Ninh Kiều, Cần Thơ",10.02601,105.74876,,Đường Trần Hoàng Na,Phường An Bình,Quận Ninh Kiều,Cần Thơ,True
190,ChIJ95ZVm6VjoDERRs-ls71JwE0,T-COFFEE,Quán cà phê,0907 454 848,"T-COFFEE, 65 Mai Chí Thọ, Phú Thứ, Cái Răng, Cần Thơ 900000",10.05979,105.72429,,Đường Bùi Hữu Nghĩa,Phường Long Hòa,Quận Bình Thủy,Cần Thơ,True
207,ChIJ6aQxBkCJoDER6HdlntNqEoA,Cafe & Sách Không Thời Gian,Quán cà phê,0706 862 168,"Cafe & Sách Không Thời Gian, 94 Đường số 3, KDC ĐHCT, Ninh Kiều, Cần Thơ 94117",31.61151,-82.73486,9494,Highway 221 N,,West Green,Coffee,True
208,ChIJISvNKEdVNDERZtXVnZvqL3c,Quận Cà Phê,Quán cà phê,,"Quận Cà Phê, 12 Đường Phú Minh, Minh Khai, Bắc Từ Liêm, Hà Nội 10000",10.0277,105.77039,144B,Đường 3 Tháng 2,Phường Xuân Khánh,Quận Ninh Kiều,Cần Thơ,True
211,ChIJxWSvk5CJoDER4Q-k02JGans,TRUNG NGUYÊN E COFFEE 24 VÕ VĂN KIỆT,Quán cà phê,0943 253 275,"TRUNG NGUYÊN E COFFEE 24 VÕ VĂN KIỆT, 24 Võ Văn Kiệt, An Hoà, Ninh Kiều, Cần Thơ",10.06648,105.75898,,Đường Cách Mạng Tháng 8,Phường Bùi Hữu Nghĩa,Quận Bình Thủy,Cần Thơ,True
214,ChIJAweY6-KJoDERoGU7T45AjJU,Mộc Lan Trà Quán,Quán cà phê,0903 122 383,"Mộc Lan Trà Quán, 54 tổ 7 , Đường Bờ Hồ Bún Xáng, Cần Thơ 900000",10.02685,105.7479,36,Đường Nguyễn Văn Cừ,Phường An Bình,Quận Ninh Kiều,Cần Thơ,True
216,ChIJDwDtoaFjoDERLommZQPHssA,Lê’s Path Coffee Cái Răng - Quán Cà Phê Đẹp Có Sân Vườn Máy Lạnh Và Điểm Tâm Sáng,Quán cà phê,0939 549 245,"Lê’s Path Coffee Cái Răng - Quán Cà Phê Đẹp Có Sân Vườn Máy Lạnh Và Điểm Tâm Sáng, 12 Mai Chí Thọ, KDC 586, Cái Răng, Cần Thơ 900000",10.04221,105.75468,,Đường Số 10,Phường An Khánh,Quận Ninh Kiều,Cần Thơ,True
218,ChIJh_SqyOqJoDERFXK94Ewn7O4,HOYA Tea & Coffee Búng Xáng,Quán cà phê,0909 996 672,"HOYA Tea & Coffee Búng Xáng, Tổ 4 Khu Vực 3, Phường An Khánh, Ninh Kiều, Cần Thơ 900000",10.04366,105.76188,152A/17,Đường Nguyễn Văn Cừ,Phường An Khánh,Quận Ninh Kiều,Cần Thơ,True
219,ChIJe36kBhWJoDERgCzxVd9QEWg,Trạm Dừng Chân (Quán Trà - Sách),Quán cà phê,0939 889 945,"Trạm Dừng Chân (Quán Trà - Sách), 1A/15A Nguyễn Văn Trỗi, An Nghiệp, Ninh Kiều, Cần Thơ",10.03835,105.75368,118,Đường Tô Hiến Thành,Phường An Khánh,Quận Ninh Kiều,Cần Thơ,True
220,ChIJ37vstxSJoDERCIu2NXrRmOM,Hạt Specialty Coffee - Roastery,Quán cà phê,0362 164 429,"Hạt Specialty Coffee - Roastery, 67-69 Đường B25, Khu dân cư 91B, Ninh Kiều, Cần Thơ 90000",10.0263,105.758,10,Quốc Lộ 91B,Phường An Khánh,Quận Ninh Kiều,Cần Thơ,True
221,ChIJ-6I1hZmJoDERXIaXaV4hgiI,Coffee & Food Tiếng Xưa - TTTM Cái Khế - Trần Phú,Quán cà phê,0866 719 799,"Coffee & Food Tiếng Xưa - TTTM Cái Khế - Trần Phú, Lô H Trần Phú, Thới Bình, Ninh Kiều, Cần Thơ 94000",10.0501,105.78701,2,Đường Lê Lợi,Phường Cái Khế,Quận Ninh Kiều,Cần Thơ,True
223,ChIJecnD4D2JoDERXpnttF_lD3c,Tojime cafe,Quán cà phê,0902 754 777,"Tojime cafe, 12A Đ. Lê Anh Xuân, An Cư, Ninh Kiều, Cần Thơ",10.05384,105.77173,76,Đường Cách Mạng Tháng 8,Phường Cái Khế,Quận Ninh Kiều,Cần Thơ,True
224,ChIJSZJDJgOIoDERraFeDjWz1ao,Tasa Coffee Hùng Vương,Quán cà phê,0932 838 588,"Tasa Coffee Hùng Vương, 55 Hùng Vương, An Hội, Ninh Kiều, Cần Thơ",10.03518,105.76522,,Hẻm 51 Nguyễn Văn Cừ,Phường An Khánh,Quận Ninh Kiều,Cần Thơ,True
225,ChIJyf68tyBjoDERgOFKPFobSfY,Cafe Thềm Xưa,Quán cà phê,0931 022 424,"Cafe Thềm Xưa, 07 Đ. Phạm Ngọc Thạch, P, Ninh Kiều, Cần Thơ 90000",10.01063,105.76196,24,Đường 30 Tháng 4,Phường Hưng Lợi,Quận Ninh Kiều,Cần Thơ,True
227,ChIJs8lmXcOJoDERYDSbDYe1D9E,Lily cafe,Quán cà phê,0909 575 999,"Lily cafe, 171 Huỳnh Cương, An Cư, Ninh Kiều, Cần Thơ",10.02463,105.76011,29,Đường Nguyễn Văn Linh,Phường Hưng Lợi,Quận Ninh Kiều,Cần Thơ,True
228,ChIJWUJYJvSJoDERbGel3eYTEN4,Tiệm cà phê Nhà Có Khách,Quán cà phê,0363 618 128,"Tiệm cà phê Nhà Có Khách, 359/19b Đ. Nguyễn Văn Cừ, An Hoà, Ninh Kiều, Cần Thơ",10.04465,105.78187,10,Đường Trần Quang Khải,Phường Cái Khế,Quận Ninh Kiều,Cần Thơ,True
231,ChIJnQdgZdmrNTERLv2nbqmvenM,Lang Thang Cà Phê - Đỗ Hành,Quán cà phê,0363 767 866,"Lang Thang Cà Phê - Đỗ Hành, 14 P. Đỗ Hành, Nguyễn Du, Hai Bà Trưng, Hà Nội",10.01403,105.76297,151,Đường Trần Hoàng Na,Phường Hưng Lợi,Quận Ninh Kiều,Cần Thơ,True
232,ChIJ24MMnCFjoDERIZq8jNXWVqQ,Đất cà phê - takeaway & delivery,Quán cà phê,0348 782 788,"Đất cà phê - takeaway & delivery, 28 Xô Viết Nghệ Tĩnh, An Hội, Ninh Kiều, Cần Thơ 94000",31.36044,-85.81688,,Mossey Ln,,Enterprise,Coffee,True
233,ChIJTaFpXd6JoDERk1j12Kc2h9w,Up Coffee & Bistro,Quán cà phê,0774 451 319,"Up Coffee & Bistro, 35 Hẻm 6 Mậu Thân, An Phú, Ninh Kiều, Cần Thơ",,,,,,,,True
234,ChIJceiwADQtdTERXVmmlEXN4lg,HONEYLLA COFFEE | COFFEE VIEW ĐẸP QUẬN 6 | COFFEE NGON QUẬN 6,Quán cà phê,0938 838 896,"HONEYLLA COFFEE | COFFEE VIEW ĐẸP QUẬN 6 | COFFEE NGON QUẬN 6, 209 Bà Hom, Phường 13, Quận 6, Thành phố Hồ Chí Minh",10.05864,105.78112,51,Đường Nguyễn Văn Cừ,Phường Cái Khế,Quận Ninh Kiều,Cần Thơ,True
262,ChIJRWQ9adaJoDERxeywzi3cVZQ,Bus Stop coffee & tea,Quán cà phê,0939 882 432,"Bus Stop coffee & tea, 114 Đường số 3, Phường An Khánh, Ninh Kiều, Cần Thơ",10.05101,105.77295,37,Đường Nguyễn Văn Cừ,Phường An Hòa,Quận Ninh Kiều,Cần Thơ,True
263,ChIJIY49UnFjoDERuiyJb5kerdI,Highlands Coffee Trần Văn Khéo - Cần Thơ,Quán cà phê,0292 7302 324,"Highlands Coffee Trần Văn Khéo - Cần Thơ, 66-68 Trần Văn Khéo, An Hội, Ninh Kiều, Cần Thơ 94000",10.02968,105.75126,138,Đường Nguyễn Văn Cừ,Phường An Khánh,Quận Ninh Kiều,Cần Thơ,True
265,ChIJaUksgVWJoDERmCqy8te6vKo,Highlands Coffee Huỳnh Cương - Cần Thơ,Quán cà phê,0292 7302 627,"Highlands Coffee Huỳnh Cương - Cần Thơ, TP, 198–200 Huỳnh Cương, An Cư, Ninh Kiều, Cần Thơ 94000",10.03214,105.74612,2,Đường Nguyễn Tri Phương,Phường An Khánh,Quận Ninh Kiều,Cần Thơ,True
266,ChIJ8aSTJZ-JoDER773DhOQYbEI,NÂU Coffee & Tea,Quán cà phê,0939 483 366,"NÂU Coffee & Tea, 103A, kv2, bờ kè rạch ngỗng, Phường An Khánh, Ninh Kiều, Cần Thơ",10.03392,105.74699,,Khu Dân Cư Hàng Bàng,Phường An Khánh,Quận Ninh Kiều,Cần Thơ,True
267,ChIJGRjHnJuJoDERiJEodhJM9QU,Quán cà phê Bida Guitar,Quán cà phê,0939 822 338,"Quán cà phê Bida Guitar, 16 Bông Vang, Đối diện công an xã, Phong Điền, Cần Thơ 000000",10.02893,105.75014,4,Đường Nguyễn Văn Cừ,Phường An Khánh,Quận Ninh Kiều,Cần Thơ,True
268,ChIJG_uCjsyJoDERfyhsD4v5rrw,Uyên Nhi Coffee,Quán cà phê,,"Uyên Nhi Coffee, 654 Đ. 30 Tháng 4, Hưng Lợi, Ninh Kiều, Cần Thơ",10.03108,105.75126,339,Đường Nguyễn Văn Linh,Phường An Khánh,Quận Ninh Kiều,Cần Thơ,True
269,ChIJFTKty0iJoDERc1psLbx0Nno,Cà phê Đỉnh,Quán cà phê,0926 616 775,"Cà phê Đỉnh, 57 Đ. Nguyễn Đệ, An Hoà, Ninh Kiều, Cần Thơ 92000",10.03387,105.74821,345,Đường Nguyễn Văn Linh,Phường An Khánh,Quận Ninh Kiều,Cần Thơ,True
270,ChIJpx0CL5SJoDER98MWnvj1Gmw,Cafe Nhà anh Đỗ,Quán cà phê,0967 904 249,"Cafe Nhà anh Đỗ, 25C Đ. Nguyễn Văn Cừ, An Phú, Ninh Kiều, Cần Thơ",,,,,,,,True
271,ChIJr7JyMJGJoDERwvsVHNTPlOQ,Co-Coffee,Quán cà phê,0939 154 202,"Co-Coffee, 202 Đ. Nguyễn Đệ, An Hoà, Ninh Kiều, Cần Thơ",10.08162,105.74039,,,,Quận Bình Thủy,Cần Thơ,True
281,ChIJJb1-72SJoDERh3P6EpoBQqs,By Ken Le - Cafe Sữa Bọt,Quán cà phê,,"By Ken Le - Cafe Sữa Bọt, 65 Xô Viết Nghệ Tĩnh, Tân An, Ninh Kiều, Cần Thơ 900022",10.05867,105.78086,6/138A,Đường Nguyễn Văn Cừ,Phường Cái Khế,Quận Ninh Kiều,Cần Thơ,True
282,ChIJK_0EZgZjoDER4IZvKHy-h-w,Huy Anh Coffee.Tea.Juice,Quán cà phê,0787 979 989,"Huy Anh Coffee.Tea.Juice, 6 Đ. Đề Thám, Tân An, Ninh Kiều, Cần Thơ",10.04861,105.77471,,Hẻm 24 Đường Trần Việt Châu,Phường An Hòa,Quận Ninh Kiều,Cần Thơ,True
283,ChIJ52lPMMGJoDER0idfPPBjOTE,Quán Cà Phê - Sinh Tố 136,Cửa hàng bán nước quả ép,0908 768 027,"Quán Cà Phê - Sinh Tố 136, 136 Đ. Đồng Văn Cống, An Hoà, Bình Thủy, Cần Thơ 94200",10.04543,105.79094,,Đường Sông Hậu,Phường Cái Khế,Quận Ninh Kiều,Cần Thơ,True
284,ChIJVdn88XqJoDER4Ta4buisBbY,Coffee 51 - Cơm tấm,Quán cà phê,0762 909 990,"2QG8+8C8 Coffee 51 - Cơm tấm, Xuân Khánh, Ninh Kiều, Cần Thơ",10.04422,105.78169,2A,Đường Trần Quang Khải,Phường Cái Khế,Quận Ninh Kiều,Cần Thơ,True
285,ChIJ7aGVQJ5ioDERj5pQT5YKSfE,Kafe'Tin97,Quán cà phê,0932 829 333,"Kafe'Tin97, Tân An, Ninh Kiều, Cần Thơ",10.04847,105.76556,75,Hẻm 75 Đường Võ Trường Toản,Phường An Hòa,Quận Ninh Kiều,Cần Thơ,True
297,ChIJY6sP2OBjoDER72dPs_gLShE,Cà Phê Tình Lai,Quán cà phê,,"Cà Phê Tình Lai, 24 Đ. Tân Trào, Tân An, Ninh Kiều, Cần Thơ",10.03934,105.75424,39,Đường Tô Hiến Thành,Phường An Khánh,Quận Ninh Kiều,Cần Thơ,True
298,ChIJ2SjHI65joDERnqDMVplwEpw,Cà phê tình nhân Bi Coffee 2,Quán cà phê,0292 2468 879,"Cà phê tình nhân Bi Coffee 2, 30-32 Đ. Phạm Ngọc Thạch, P, Ninh Kiều, Cần Thơ",,,,,,,,True
302,ChIJ7-U23NxjoDERBFhvVBHj5dw,Cả Nhà Mình Coffee,Quán cà phê,0913 973 360,"Cả Nhà Mình Coffee, 48 Xô Viết Nghệ Tĩnh, An Hội, Ninh Kiều, Cần Thơ",10.02122,105.7423,10/261,Đường Nguyễn Văn Cừ,Phường An Bình,Quận Ninh Kiều,Cần Thơ,True
304,ChIJdYcpvbyJoDER4Iuq7O7kh9E,Chất Cà Phê,Quán cà phê,0939 828 929,"Chất Cà Phê, 381 Đ. Nguyễn Văn Cừ, An Hoà, Ninh Kiều, Cần Thơ",10.00849,105.74982,,Cầu Cái Răng,Phường An Bình,Quận Ninh Kiều,Cần Thơ,True
305,ChIJ-_L7OwNjoDERHlmIeHw1IWc,E-Coffee Trung Nguyên Phan Đình Phùng,Quán cà phê,,"E-Coffee Trung Nguyên Phan Đình Phùng, 12 Phan Đình Phùng, Tân An, Ninh Kiều, Cần Thơ",10.0082,105.74878,,Đường Lộ Vòng Cung,Phường An Bình,Quận Ninh Kiều,Cần Thơ,True
306,ChIJi1pA1IOJoDERts7F7MyS3rM,Võ Café,Quán cà phê,0907 192 730,"Võ Café, 96 Tổ 3, khu vực 12, Ninh Kiều, Cần Thơ 94117",10.01972,105.77284,,,Phường Hưng Lợi,Quận Ninh Kiều,Cần Thơ,True
324,ChIJrVNRBKQpdTERcBT53j5pXHk,Kaizen Coffee,Nhà bán buôn cà phê,0815 111 888,"Kaizen Coffee, TP, Nhà L9, đường số 12, KDC Jamona Home Resort, Hiệp Bình Phước, Thủ Đức, Thành phố Hồ Chí Minh 71300",10.04369,105.7648,111,Đường Võ Văn Kiệt,Phường An Hòa,Quận Ninh Kiều,Cần Thơ,True
330,ChIJz457NjWIoDERgtQrSK-RFNM,Tim Coffee,Quán cà phê,,"Tim Coffee, 29/3 Đ. 30 Tháng 4, Hưng Lợi, Ninh Kiều, Cần Thơ",10.04447,105.75276,2,Đường Số 7,Phường An Khánh,Quận Ninh Kiều,Cần Thơ,True
331,ChIJ2edBXEWJoDER2JP7qJ_9CnU,Quynh Anh Coffee,Nhà sản xuất thực phẩm,0773 595 554,"Quynh Anh Coffee, 3 Đ. Trần Vĩnh Kiết, An Bình, Ninh Kiều, Cần Thơ 92000",10.04172,105.76317,138,Đường Nguyễn Văn Cừ Nối Dài,Phường An Khánh,Quận Ninh Kiều,Cần Thơ,True
332,ChIJV4lwhMeJoDERlokURbPiXf8,1995s Coffee & Tea,Quán cà phê,0706 799 379,"1995s Coffee & Tea, 251/32A Đ. Trần Ngọc Quế, Xuân Khánh, Ninh Kiều, Cần Thơ",10.04767,105.76924,413,Đường Nguyễn Văn Cừ,Phường An Hòa,Quận Ninh Kiều,Cần Thơ,True
344,ChIJGVQ5ulCJoDERKQmLHT4xlWA,HOMELY MILK-TEA TAKEAWAY,Quán cà phê,0814 748 978,"HOMELY MILK-TEA TAKEAWAY, 388Z6A, Nguyễn Văn Cừ Nối Dài, Phường An Khánh, Ninh Kiều, Cần Thơ",10.02954,105.77909,,Hẻm 108 Đường 30 Tháng 4,Phường An Phú,Quận Ninh Kiều,Cần Thơ,True
354,ChIJCStwutOJoDERcx0fD3JCxk0,Cà Phê Đồ Nghề Phước Duy,Quán cà phê,0946 377 778,"Cà Phê Đồ Nghề Phước Duy, 159 Huỳnh Cương, An Cư, Ninh Kiều, Cần Thơ",10.0175,105.74329,313,Đường Hoàng Quốc Việt,Phường An Bình,Quận Ninh Kiều,Cần Thơ,True
356,ChIJJ7NkhWqJoDERXIcM5VRte10,Cà Phê Xe Lam,Quán cà phê,0971 842 135,"Cà Phê Xe Lam, 31 Hùng Vương, An Hội, Ninh Kiều, Cần Thơ",9.99698,105.72165,,Đường Lộ Vòng Cung,Xã Mỹ Khánh,Huyện Phong Điền,Cần Thơ,True
357,ChIJXedSC3GJoDERCJ9MsUx8DpI,Cà phê Vợt mang đi,Quán cà phê,0949 127 890,"Cà phê Vợt mang đi, 62 Đ. Mậu Thân, An Nghiệp, Ninh Kiều, Cần Thơ",21.01897,105.84156,36,Phố Nguyễn Thượng Hiền,Phường Nguyễn Du,Quận Hai Bà Trưng,Hà Nội,True
358,ChIJ4RCpJPRjoDER3D0ReG2dKOk,Cà phê Tarot,Quán cà phê,0899 666 788,"Cà phê Tarot, 44 Đ. Nguyễn Khuyến, Tân An, Ninh Kiều, Cần Thơ 900000",10.03538,105.7862,2,Đường Hòa Bình,Phường An Cư,Quận Ninh Kiều,Cần Thơ,True
359,ChIJJY9PuSSIoDER7MHl4OKk4QY,Quán Cà Phê Pha Lê,Quán cà phê,0292 3738 399,"2QGC+JHV Quán Cà Phê Pha Lê, Đ. Trần Văn Hoài, Xuân Khánh, Ninh Kiều, Cần Thơ",10.01127,105.75203,,Đường 3 Tháng 2,Phường An Bình,Quận Ninh Kiều,Cần Thơ,True
365,ChIJ33JDPhOJoDERJ2SmP9lHdS0,Cafe cá KOI,Quán cà phê,0939 961 728,"Cafe cá KOI, 163e Nguyễn Văn Cừ Nối Dài, Phường An Khánh, Ninh Kiều, Cần Thơ",10.03212,105.78464,44A,Đường Nam Kỳ Khởi Nghĩa,Phường Tân An,Quận Ninh Kiều,Cần Thơ,True
366,ChIJs5zJYDqIoDERoQ-O7t6vrQY,Quán Cà Phê Lê Bình,Quán cà phê,0989 900 077,"2QF8+FRV Quán Cà Phê Lê Bình, Đ. 3 Tháng 2, Hưng Lợi, Ninh Kiều, Cần Thơ",10.01385,105.76718,216,Hẻm 216 Tầm Vu,Phường Hưng Lợi,Quận Ninh Kiều,Cần Thơ,True
370,ChIJL9Ud_iyJoDERmk-3n21rAVs,Cafe Ngọc Yến 3,Quán cà phê,,"2QF8+PR2 Cafe Ngọc Yến 3, Hưng Lợi, Ninh Kiều, Cần Thơ",10.03257,105.7749,156,Đường Mậu Thân,Phường Xuân Khánh,Quận Ninh Kiều,Cần Thơ,True
371,ChIJSwzxdMOJoDERFD3n1eV2LDY,Cafe PHỐ 24H,Quán cà phê,0989 900 077,"Cafe PHỐ 24H, 124 Đ. 30 Tháng 4, Hưng Lợi, Ninh Kiều, Cần Thơ",10.05269,105.77568,36,Hẻm 152 Đường Đoàn Thị Điểm,Phường Cái Khế,Quận Ninh Kiều,Cần Thơ,True
372,ChIJY8V7QDmtNTERNruZUVj4uU0,Sam Rooftop Coffee,Quán cà phê,0987 870 931,"Sam Rooftop Coffee, 58 Ng. 298 Tây Sơn, Ngã Tư Sở, Đống Đa, Hà Nội",10.0438,105.7906,39,Đường Lê Lợi,Phường Cái Khế,Quận Ninh Kiều,Cần Thơ,True
373,ChIJn7RJk7yJoDEReCOEcgUe7hs,NHÀ DÁT VÀNG CẦN THƠ,Quán cà phê,0913 824 742,"NHÀ DÁT VÀNG CẦN THƠ, Số18 Đường số 6, Kdc Thới Nhựt 2, Ninh Kiều, Cần Thơ",10.04422,105.78169,2A,Đường Trần Quang Khải,Phường Cái Khế,Quận Ninh Kiều,Cần Thơ,True
374,ChIJV_FD4EOIoDERUsytZhQWddg,CAFE NGỌC YẾN 6,Quán cà phê,0939 064 848,"CAFE NGỌC YẾN 6, 306N Đ. Nguyễn Văn Linh, Phường An Khánh, Ninh Kiều, Cần Thơ",10.03223,105.78218,2,Đường Lý Tự Trọng,Phường An Cư,Quận Ninh Kiều,Cần Thơ,True
375,ChIJiTr5bzSIoDER_7DJCUzeyDg,Aurora Cafe,Quán cà phê,,"Aurora Cafe, 169B Đ. 30 Tháng 4, Hưng Lợi, Ninh Kiều, Cần Thơ",10.04011,105.77767,157,Đường Hoàng Văn Thụ,Phường An Cư,Quận Ninh Kiều,Cần Thơ,True
378,ChIJfZ7K6zqIoDERr_IzgMQbv7A,Hoa Đô Coffee,Quán cà phê,0939 659 059,"Hoa Đô Coffee, 164/7A Đ. Trần Ngọc Quế, Xuân Khánh, Ninh Kiều, Cần Thơ",10.03855,105.76488,132D3,Hẻm 132 Đường Nguyễn Văn Cừ,Phường An Khánh,Quận Ninh Kiều,Cần Thơ,True
388,ChIJp7ErsKdioDERvXNzqlN12qE,Quán Cà Phê Đoàn 30,Quán cà phê,0292 3832 574,"Quán Cà Phê Đoàn 30, 80 Nguyễn Trãi, An Hội, Ninh Kiều, Cần Thơ",10.00557,105.74951,,Đường Lý Thường Kiệt,Phường Lê Bình,Quận Cái Răng,Cần Thơ,True
398,ChIJ5VqtGaBioDER3NQLlbGoQyA,Quán Cà Phê Phương Mai,Quán cà phê,0949 111 223,"Quán Cà Phê Phương Mai, 42-44 Đại lộ Hoà Bình, Tân An, Ninh Kiều, Cần Thơ",10.01344,105.76133,,Đường 30/4,Phường Hưng Lợi,Quận Ninh Kiều,Cần Thơ,True
401,ChIJfeQb2f2HoDERkEFhMLeNv28,Cafe An Gia,Quán cà phê,0925 631 506,"Cafe An Gia, 8 Trần Văn Giàu, Cái Khế, Ninh Kiều, Cần Thơ",10.0341,105.78216,2,Hẻm 59 Đề Thám,Phường An Cư,Quận Ninh Kiều,Cần Thơ,True
404,ChIJkfSqn1qIoDER80ttQS5RxqQ,Cafe Nhà Gỗ,Quán cà phê,0902 097 245,"Cafe Nhà Gỗ, 231 Nguyễn Văn Cừ Nối Dài, An Bình, Tp, Cần Thơ",10.03802,105.75985,184,Đường Nguyễn Văn Cừ Nối Dài,Phường An Khánh,Quận Ninh Kiều,Cần Thơ,True
405,ChIJeWIJ2keIoDERN8HETfZTh24,Cafe Hoa Hồng,Quán cà phê,0917 130 999,"2QF4+9HF Cafe Hoa Hồng, Phường An Khánh, Ninh Kiều, Cần Thơ",10.02599,105.77537,258,Đường 30 Tháng 4,Phường Xuân Khánh,Quận Ninh Kiều,Cần Thơ,True
406,ChIJLYBYwDqIoDERuElQZO_4-vg,Cà Phê Hoàng Hôn,Quán cà phê,0292 3840 123,"Cà Phê Hoàng Hôn, 162 Đ. Trần Ngọc Quế, Xuân Khánh, Ninh Kiều, Cần Thơ 900000",10.03239,105.77953,86,Đường Lê Lai,Phường An Phú,Quận Ninh Kiều,Cần Thơ,True
407,ChIJR8zsxkOIoDERlxCWlfCzV3o,Cafe Hoa Nắng,Quán cà phê,0292 3769 103,"Cafe Hoa Nắng, 299 C Đ. Nguyễn Văn Cừ, Phường An Khánh, Ninh Kiều, Cần Thơ",10.02565,105.77915,213D,Đường Nguyễn Thị Minh Khai,Phường Xuân Khánh,Quận Ninh Kiều,Cần Thơ,True
409,ChIJDS8toZSrNTERNJ026MyznXs,Cà phê Hai Bốn,Quán cà phê,0912 170 210,"Cà phê Hai Bốn, 43 Nguyễn Du Hà Nội, Hanoi City, 110115",,,,,,,,True
411,ChIJid_tjESIoDER6a6pRgDP7V8,Cà Phê 338,Quán cà phê,,"Cà Phê 338, 28 Nguyễn Văn Cừ Nối Dài, Phường An Khánh, Ninh Kiều, Cần Thơ",10.04498,105.78223,41,Đường Trần Quang Khải,Phường Cái Khế,Quận Ninh Kiều,Cần Thơ,True
417,ChIJ78GcTDJjoDERsnbGDpEmGgs,Yên Garden Coffee & Tea,Quán cà phê,0939 141 177,"Yên Garden Coffee & Tea, 70-72 Lê Lợi, Cái Khế, Ninh Kiều, Cần Thơ 94000",10.03327,105.76171,385II/14B,Đường Trần Nam Phú,Phường An Khánh,Quận Ninh Kiều,Cần Thơ,True
435,ChIJlUQs3zWIoDERyp7XgqYVr7M,Café 112,Quán cà phê,,"Café 112, 112 Đ. 3 Tháng 2, Hưng Lợi, Ninh Kiều, Cần Thơ",9.99694,105.66559,,,,Huyện Phong Điền,Cần Thơ,True
436,ChIJr0vURCKIoDERu3qIlb7SyOw,Quán Café Thi Thơ,Quán cà phê,0292 3739 869,"Quán Café Thi Thơ, 226, Đường 3/2, Quận Ninh Kiều, Tp Cần Thơ, An Phú, Ninh Kiều, Cần Thơ",9.99497,105.73795,431,Đường Lộ Vòng Cung,Phường An Bình,Quận Ninh Kiều,Cần Thơ,True
437,ChIJj24YLp6JoDERgGWtK5eMzYk,King Koi Coffee,Quán cà phê,0929 828 384,"King Koi Coffee, 41 Đ. Mậu Thân, An Hoà, Ninh Kiều, Cần Thơ",10.04006,105.77743,3,Quốc Lộ 1A,Phường An Nghiệp,Quận Ninh Kiều,Cần Thơ,True
438,ChIJH1gePhaJoDERxELx-DJEXsI,Cafe 369,Quán cà phê,,"Cafe 369, 152 Đ. Nguyễn Tri Phương, Phường An Khánh, Ninh Kiều, Cần Thơ",10.02113,105.76919,,Đường Lê Bình,Phường Hưng Lợi,Quận Ninh Kiều,Cần Thơ,True
439,ChIJyT7XhqqrNTERbz0ellLo1f4,Hầm Trú Ẩn Cafe,Quán cà phê,0378 802 382,"Hầm Trú Ẩn Cafe, 78 Ng. Trung Tiền, Khâm Thiên, Đống Đa, Hà Nội",10.02338,105.75658,85,Đường Nguyễn Hiền,Phường An Khánh,Quận Ninh Kiều,Cần Thơ,True
441,ChIJYxLXLc-JoDEREtxz9U9XZ4c,Hoàng Phát Pro 1,Quán cà phê,,"Hoàng Phát Pro 1, 108 Đ. Trần Hoàng Na, Hưng Lợi, Ninh Kiều, Cần Thơ",10.03432,105.74766,91B,Đường Nguyễn Văn Linh,Phường An Khánh,Quận Ninh Kiều,Cần Thơ,True
442,ChIJX5VetDGIoDERCG8HLsda1Xo,Quán Cà Phê Cây Khế,Quán cà phê,0292 3839 336,"2Q99+PFG Quán Cà Phê Cây Khế, Đ. Nguyễn Văn Linh, Hưng Lợi, Ninh Kiều, Cần Thơ",10.03008,105.78661,97,Đường Phan Đình Phùng,Phường Tân An,Quận Ninh Kiều,Cần Thơ,True
446,ChIJpWu3KaBioDERhoYKUtijfrE,Time Cafe,Quán cà phê,,"Time Cafe, 89a Võ Văn Tần, Tân An, Ninh Kiều, Cần Thơ",10.02796,105.77032,,Đường 3 Tháng 2,Phường Xuân Khánh,Quận Ninh Kiều,Cần Thơ,True
450,ChIJIzeO0kGIoDERSeaRa2HUWzY,Quán Cafe Sala,Quán cà phê,0292 3789 789,"2QM4+C39 Quán Cafe Sala, Đường Nguyễn Văn Cừ Nối Dài, Phường An Khánh, Quận Ninh Kiều, Phường An Khánh, Ninh Kiều, Cần Thơ",10.03656,105.78617,5,Đường Ngô Hữu Hạnh,Phường Tân An,Quận Ninh Kiều,Cần Thơ,True
451,ChIJ4XY5zwmJoDERyJM9q23mhpc,WIMI Specialty Coffee and Tea,Quán cà phê,0865 084 744,"WIMI Specialty Coffee and Tea, 25G Đ. Mậu Thân, Xuân Khánh, Ninh Kiều, Cần Thơ",10.03219,105.785,27,Đường Đồng Khởi,Phường Tân An,Quận Ninh Kiều,Cần Thơ,True
452,ChIJCSPlLl5joDERaCi3yhpLWG0,Cafe Six Garden,Quán cà phê,,"Cafe Six Garden, 6 Đại lộ Hoà Bình, Tân An, Ninh Kiều, Cần Thơ",10.05421,105.75992,,Đường Đồng Văn Cống,Phường An Thới,Quận Bình Thủy,Cần Thơ,True
453,ChIJ_wm6t0CHoDERGUYvvZPi-Rc,NAM Coffee,Quán cà phê,,"3Q4G+9WC NAM Coffee, Phạm Công Trứ, Cái Khế, Ninh Kiều, Cần Thơ",10.04606,105.76754,256/1A,Đường Nguyễn Văn Cừ,Phường An Hòa,Quận Ninh Kiều,Cần Thơ,True
455,ChIJ9bfG6XqJoDERA4zpB_UHJP8,Xóm Cà Phê,Quán cà phê,0292 3818 283,"Xóm Cà Phê, 290 Đường 3-2, An Bình, Ninh Kiều, Cần Thơ",10.0298,105.78038,45,Đường 30 Tháng 4,Phường An Phú,Quận Ninh Kiều,Cần Thơ,True
458,ChIJvTSQdaBioDERxSgHheoEAGU,Cà Phê Cát Tường 1,Quán cà phê,,"Cà Phê Cát Tường 1, 39 Đ. Đề Thám, Tân An, Ninh Kiều, Cần Thơ",10.02725,105.77001,145,Đường Trần Văn Hoài,Phường Xuân Khánh,Quận Ninh Kiều,Cần Thơ,True
460,ChIJc_aRgw-JoDER_Z_xaAatr4c,Cà phê & Ăn sáng Tiếng Xưa,Quán cà phê,,"Cà phê & Ăn sáng Tiếng Xưa, 68 Đ. 3 Tháng 2, Hưng Lợi, Ninh Kiều, Cần Thơ",10.02358,105.76724,10,Đường Lê Bình,Phường Hưng Lợi,Quận Ninh Kiều,Cần Thơ,True
461,ChIJ45cM6j6JoDER8QkD9a_4YMM,Thi Thơ - Coffee and Tea,Quán cà phê,0292 3899 988,"Thi Thơ - Coffee and Tea, 77-79 Võ Văn Kiệt, An Hoà, Ninh Kiều, Cần Thơ",10.04009,105.78554,26,Đường Nguyễn Trãi,Phường Tân An,Quận Ninh Kiều,Cần Thơ,True
463,ChIJEYYihxCJoDERzpkGVOVQVpY,MAY COFFEE,Quán cà phê,0292 3939 000,"MAY COFFEE, 03 Đ. Trần Hoàng Na, Hưng Lợi, Ninh Kiều, Cần Thơ",10.02447,105.75074,71B,Đường Trần Hoàng Na,Phường An Bình,Quận Ninh Kiều,Cần Thơ,True
464,ChIJz2vXItaJoDER5qOCI8WD4Ew,4Cs Cafe,Quán cà phê,0292 3868 000,"4Cs Cafe, 80 Đ. Mậu Thân, An Nghiệp, Ninh Kiều, Cần Thơ",10.01176,105.76184,,Đường 30 Tháng 4,Phường Hưng Lợi,Quận Ninh Kiều,Cần Thơ,True
468,ChIJ02nyRZGJoDERH7Zx1_Uqfds,Cafe F,Quán cà phê,0939 347 789,"Cafe F, mới, Đ. Trần Hoàng Na, Hưng Lợi, Ninh Kiều, Cần Thơ",10.04499,105.76641,426,Đường Nguyễn Văn Cừ,Phường An Hòa,Quận Ninh Kiều,Cần Thơ,True
489,ChIJKXVolsKJoDERNjAlUsgo99A,Bocora Coffee Garden,Quán cà phê,0896 616 268,"Bocora Coffee Garden, Hẻm 51, Xuân Khánh, Ninh Kiều, Cần Thơ",10.02685,105.78605,119,Đường Hai Bà Trưng,Phường Tân An,Quận Ninh Kiều,Cần Thơ,True
490,ChIJK-JG490udTERJh71ols4j0Q,Cafe HD MAY 2,Rạp chiếu phim,0906 846 599,"Cafe HD MAY 2, 16 Hẻm 343 Sư Vạn Hạnh, Phường 12, Quận 10, Thành phố Hồ Chí Minh",10.04277,105.75702,37,Đường Số 12,Phường An Khánh,Quận Ninh Kiều,Cần Thơ,True
496,ChIJ7bP-JSSIoDERP05Xr_wjdGM,G-Master Boardgames Coffee,Quán cà phê,0829 990 399,"G-Master Boardgames Coffee, 19/27 Đ. Trương Định, Tân An, Ninh Kiều, Cần Thơ",10.03667,105.75813,,Đường Nguyễn Văn Cừ Nối Dài,Phường An Khánh,Quận Ninh Kiều,Cần Thơ,True
497,ChIJ2TDLQquJoDERh4-4Wx8Yg3A,The 80’s coffee 24h,Quán cà phê,0369 002 733,"The 80’s coffee 24h, 307H Đ. Nguyễn Văn Linh, Phường An Khánh, Ninh Kiều, Cần Thơ",10.04182,105.76354,1,Đường Nguyễn Văn Cừ Nối Dài,Phường An Khánh,Quận Ninh Kiều,Cần Thơ,True
498,ChIJZdC56MuJoDERvKcx7T_4suQ,PHÚC COFFEE,Quán cà phê,0947 703 456,"PHÚC COFFEE, 207 Đ. Nguyễn Hiền, Khu dân cư 91B, Ninh Kiều, Cần Thơ 94000",10.0387,105.7602,163,Đường Nguyễn Văn Cừ Nối Dài,Phường An Khánh,Quận Ninh Kiều,Cần Thơ,True
499,ChIJY7DRVhqIoDER5pFAe4PY9XA,Quán Cà Phê 2.63,Quán cà phê,0292 3768 213,"Quán Cà Phê 2.63, 124 Đ. Lê Anh Xuân, An Nghiệp, Ninh Kiều, Cần Thơ",10.03355,105.7484,337,Đường Nguyễn Văn Linh,Phường An Khánh,Quận Ninh Kiều,Cần Thơ,True
514,ChIJRff3EP6HoDERlQfjAd6jT0Q,Cà Phê Vườn Tơ Hồng,Quán cà phê,,"Cà Phê Vườn Tơ Hồng, 8 Nguyễn Văn Cừ nối dài, Phường An Khánh, Ninh Kiều, Cần Thơ",9.99518,105.73798,,Đường Lộ Vòng Cung,Phường An Bình,Quận Ninh Kiều,Cần Thơ,True
516,ChIJWRFajTqIoDERaWxGvO5Diyk,Cà Phê Cố Đô,Quán cà phê,0913 312 259,"Cà Phê Cố Đô, 170 Đ. Quản Trọng Hoàng, Xuân Khánh, Ninh Kiều, Cần Thơ",10.01013,105.75073,1,Đường 3 Tháng 2,Phường An Bình,Quận Ninh Kiều,Cần Thơ,True
517,ChIJ920-41yJoDERWXGajR57rl4,LêLa Coffee & Tea,Quán cà phê,0949 756 754,"LêLa Coffee & Tea, 118 Đ. Trần Hoàng Na, Hưng Lợi, Ninh Kiều, Cần Thơ",,,,,,,,True
518,ChIJzaUZo69joDERWa0oeoL7Lgg,Yên Coffee,Quán cà phê,0917 223 305,"Yên Coffee, 12R Hẻm 22 Đ. Mạc Đĩnh Chi, Tân An, Ninh Kiều, Cần Thơ",10.00849,105.74982,,Cầu Cái Răng,Phường An Bình,Quận Ninh Kiều,Cần Thơ,True
519,ChIJ8xhaq8yJoDERXCznfeWGeoA,Cà Phê Nhanh,Quán cà phê,0292 2477 998,"Cà Phê Nhanh, 41 Đ. Trần Hoàng Na, Hưng Lợi, Ninh Kiều, Cần Thơ",9.99554,105.73972,,Đường Lộ Vòng Cung,Phường An Bình,Quận Ninh Kiều,Cần Thơ,True
520,ChIJy1EwWymHoDERRW2ksUC7hqE,Coffee Trung Đông,Quán cà phê,0292 3832 852,"Coffee Trung Đông, 38 Đ. Nguyễn Văn Cừ, Cái Khế, Ninh Kiều, Cần Thơ",9.99265,105.74875,169/1A,Quốc Lộ 1A,Phường Lê Bình,Quận Cái Răng,Cần Thơ,True
522,ChIJB0Uhy5iJoDERwZZT6UXWnpc,Cafe Koi- Sanh Lộc,Quán cà phê,0903 363 700,"Cafe Koi- Sanh Lộc, 287 Đường Số 4, An Bình, Ninh Kiều, Cần Thơ",10.01369,105.76297,,Đường Trần Hoàng Na,Phường Hưng Lợi,Quận Ninh Kiều,Cần Thơ,True
523,ChIJT-CJ-y-IoDERhwhRaNbXtA0,Kaffeine House,Quán cà phê,,"Kaffeine House, 320 Đ. Trần Ngọc Quế, Xuân Khánh, Ninh Kiều, Cần Thơ",10.01972,105.77284,,,Phường Hưng Lợi,Quận Ninh Kiều,Cần Thơ,True
545,ChIJP8Wj9nmJoDERfMeoOvSp5W4,Bee Art & Coffee 2,Quán cà phê,0913 303 780,"2QP8+HGM Bee Art & Coffee 2, Hẻm 51, Xuân Khánh, Ninh Kiều, Cần Thơ",10.03325,105.78777,,Đường Tân Trào,Phường Tân An,Quận Ninh Kiều,Cần Thơ,True
547,ChIJUVYgkPCJoDERsJPk0ubc1KY,VOI Coffee,Quán cà phê,0946 144 244,"VOI Coffee, 250 Đ. Nguyễn Hiền, Hưng Lợi, Ninh Kiều, Cần Thơ 94000",10.06678,105.75604,36C,Hẻm 36 Nguyễn Thông,Phường An Thới,Quận Bình Thủy,Cần Thơ,True
548,ChIJUZb5WPKJoDERnJdcu0aict4,Coffee 1985,Quán cà phê,0909 286 024,"Coffee 1985, 145 Đ. Nguyễn Hiền, Hưng Lợi, Ninh Kiều, Cần Thơ",10.05641,105.77264,55B,Hẻm 86 Cách Mạng Tháng 8,Phường An Thới,Quận Bình Thủy,Cần Thơ,True
549,ChIJyWUGIV2JoDERdu1pVJHIOgY,REX COFFEE,Quán cà phê,0904 165 165,"REX COFFEE, Hẻm 51, Xuân Khánh, Ninh Kiều, Cần Thơ",10.05874,105.76327,,Hẻm 39 Cách Mạng Tháng 8,Phường An Thới,Quận Bình Thủy,Cần Thơ,True
551,ChIJL--wOMSJoDERMkfWTEl7chQ,The Fox Coffee Working Space,Quán cà phê,,"2QR7+C4H The Fox Coffee Working Space, 131 Đ. Nguyễn Văn Cừ, Phường An Khánh, Ninh Kiều, Cần Thơ",10.02106,105.7537,99,Đường B30,Phường An Khánh,Quận Ninh Kiều,Cần Thơ,True
553,ChIJLYyaS5uJoDERuI8eL7k7d3c,Cà phê Cổ Ngoạn,Quán cà phê,0997 307 979,"Cà phê Cổ Ngoạn, Cà phê Cổ ngoạn, Long Tuyền, Bình Thủy, Cần Thơ",10.01364,105.77124,153,Đường Tầm Vu,Phường Hưng Lợi,Quận Ninh Kiều,Cần Thơ,True
554,ChIJS3Mn4th9oDERiyWynuWd0UA,Cà phê QUYÊN (Cồn Khương),Quán cà phê,,"3Q6M+HP7 Cà phê QUYÊN (Cồn Khương), Đ. Nguyễn Văn Cừ, Cái Khế, Ninh Kiều, Cần Thơ",10.0397,105.75347,43,Đường Số 14,Phường An Khánh,Quận Ninh Kiều,Cần Thơ,True
556,ChIJUzADtwKrNTERswolJ9OLhJ8,Cà phê ven hồ,Quán cà phê,,"2R9V+QRM Cà phê ven hồ, Ngã tư, P. Trần Bình Trọng, P, Hoàn Kiếm, Hà Nội",10.03226,105.76214,50C/2,Đường Trần Nam Phú,Phường An Khánh,Quận Ninh Kiều,Cần Thơ,True
558,ChIJtZkzIXiJoDERLYoquJNEcis,Thi Thơ Coffee,Quán cà phê,,"Thi Thơ Coffee, 20 Đ. Trần Hoàng Na, Hưng Lợi, Ninh Kiều, Cần Thơ",10.03465,105.7794,38,Đường Lý Tự Trọng,Phường An Phú,Quận Ninh Kiều,Cần Thơ,True
559,ChIJe2FMbCeJoDER9Im_s0N76F8,Quán Cà Phê PHÙ SA,Quán cà phê,,"2QC4+V2G Quán Cà Phê PHÙ SA, Khu dân cư 91B, Ninh Kiều, Cần Thơ",10.06235,105.76322,340,Đường Cách Mạng Tháng 8,Phường Bùi Hữu Nghĩa,Quận Bình Thủy,Cần Thơ,True
565,ChIJLYNmES-JoDERt1rCQxe_lKY,Cafe 1985,Quán cà phê,0292 3892 626,"Cafe 1985, 138a Huỳnh Cương, An Cư, Ninh Kiều, Cần Thơ",10.01356,105.75807,49,Đường 3 Tháng 2,Phường Hưng Lợi,Quận Ninh Kiều,Cần Thơ,True
566,ChIJSd-S-KBioDERPUdzD3Lmmlc,Cafe Mai Hoa,Quán cà phê,0908 888 777,"Cafe Mai Hoa, 71 Đ. Ngô Quyền, Tân An, Ninh Kiều, Cần Thơ",10.0226,105.7662,229,Đường 3 Tháng 2,Phường Hưng Lợi,Quận Ninh Kiều,Cần Thơ,True
567,ChIJJzCZOzyJoDERy2uFsAGBpJg,Dạ lý,Quán cà phê,,"Dạ lý, 118 Đ. Trần Hoàng Na, Hưng Lợi, Ninh Kiều, Cần Thơ",,,,,,,,True
568,ChIJda_lzTSJoDERwjYvaTxnD30,Là Cafe,Quán cà phê,0977 666 647,"Là Cafe, 122/6 Đ. Mạc Thiên Tích, Xuân Khánh, Ninh Kiều, Cần Thơ",10.77031,106.6823,584,Đường Nguyễn Đình Chiểu,Phường 5,Quận 3,Hồ Chí Minh,True
569,ChIJHcCdGOqJoDERy7S9HK6sYLM,Tiệm cà phê Ông Quan,Quán cà phê,0937 296 565,"Tiệm cà phê Ông Quan, 78 Đ. 30 Tháng 4, Hưng Lợi, Ninh Kiều, Cần Thơ",10.04177,105.72244,,Đường Bùi Hữu Nghĩa,,Quận Bình Thủy,Cần Thơ,True
571,ChIJwwKJTPyJoDERh1c7eBfQUBM,Sonder Tea & Coffee Nguyễn Văn Cừ,Quán cà phê,0292 3943 259,"Sonder Tea & Coffee Nguyễn Văn Cừ, 877 Nguyễn Văn Cừ Nối Dài, Phường An Khánh, Ninh Kiều, Cần Thơ",10.05893,105.77953,2,Đường Phạm Công Trứ,Phường Cái Khế,Quận Ninh Kiều,Cần Thơ,True
572,ChIJpwaCvhmIoDERdpuy-x0MoGo,Quán Cà Phê Tuyết Trắng,Quán cà phê,0918 885 222,"Quán Cà Phê Tuyết Trắng, 41F Đ. Mậu Thân, An Nghiệp, Ninh Kiều, Cần Thơ",10.05704,105.75556,3,Đường Trần Quang Diệu,Phường An Thới,Quận Bình Thủy,Cần Thơ,True
573,ChIJLzisQP6HoDERrz8qz9OuMyk,Mộc Miên Coffee,Quán cà phê,,"Mộc Miên Coffee, 60 Đ. Nguyễn Văn Cừ, Cái Khế, Ninh Kiều, Cần Thơ",10.04374,105.78512,37-39,Đường Lý Hồng Thanh,Phường Cái Khế,Quận Ninh Kiều,Cần Thơ,True
575,ChIJV9UG12qIoDER1vJSBD8qli0,Quán Cafe 24/7,Quán cà phê,,"2QP5+F5P Quán Cafe 24/7, Nguyễn Văn Cừ Nối Dài, Phường An Khánh, Ninh Kiều, Cần Thơ",10.05194,105.77395,,Đường Nguyễn Văn Cừ,Phường Cái Khế,Quận Ninh Kiều,Cần Thơ,True
576,ChIJs0ye6FCIoDERINq9CwbO2E4,Cà Phê Tuyết Nhi,Quán cà phê,,"Cà Phê Tuyết Nhi, 28 Nguyễn Văn Cừ Nối Dài, An Bình, Ninh Kiều, Cần Thơ",,,,,,,,True
577,ChIJVQg8-B-IoDERM3BccBPTc6I,Quán Cafe Bích Kiều,Quán cà phê,0292 3813 502,"Quán Cafe Bích Kiều, 87 Hoàng Văn Thụ, An Cư, Ninh Kiều, Cần Thơ",10.0564,105.7785,3,Đường Nguyễn Văn Cừ,Phường Cái Khế,Quận Ninh Kiều,Cần Thơ,True
579,ChIJg6QHPayJoDERq2Y9OxR-pU8,HIGHLANDS COFFEE - VinCom Hùng Vương,Quán cà phê,,"HIGHLANDS COFFEE - VinCom Hùng Vương, 02 Hùng Vương, Thới Bình, Ninh Kiều, Cần Thơ",10.04708,105.77654,24,Hẻm 24 Đường Trần Việt Châu,Phường An Hòa,Quận Ninh Kiều,Cần Thơ,True
580,ChIJqc_wpDSIoDERmyI3cJeITnQ,Cà Phê Không Gian,Quán cà phê,,"Cà Phê Không Gian, 151 Đ. Trần Hoàng Na, Hưng Lợi, Ninh Kiều, Cần Thơ",10.04769,105.77772,25,Đường Cách Mạng Tháng 8,Phường An Hòa,Quận Ninh Kiều,Cần Thơ,True
594,ChIJt4u4SEKIoDERR6Dehr84E1Q,Quán Cà Phê Hoa Sữa,Quán cà phê,,"Quán Cà Phê Hoa Sữa, 80 KDC Thới Nhựt, Quận Ninh Kiều, Tp Cần Thơ, Phường An Khánh, Ninh Kiều, Cần Thơ",10.04246,105.77799,94,Đường Hùng Vương,Phường Thới Bình,Quận Ninh Kiều,Cần Thơ,True
600,ChIJOyJG10eIoDERdtSeoFmBKYg,Cà Phê Góc Phố,Quán cà phê,0946 401 699,"Cà Phê Góc Phố, 57 Đ. Nguyễn Hiền, Hưng Lợi, Ninh Kiều, Cần Thơ",10.02731,105.78629,166,Đường Hai Bà Trưng,Phường Tân An,Quận Ninh Kiều,Cần Thơ,True
601,ChIJQ_TcocmJoDERG52vpAgWhKE,Kho Cafe,Quán cà phê,0854 267 394,"Kho Cafe, 44 Đ. Võ Trường Toản, An Hoà, Ninh Kiều, Cần Thơ",10.0271,105.74819,28,Đường Nguyễn Văn Cừ,Phường An Bình,Quận Ninh Kiều,Cần Thơ,True
602,ChIJgR2Cg3OJoDERwswrrVEbo0Q,We Coffee,Quán cà phê,,"2QP8+HGM We Coffee, Hẻm 51, Xuân Khánh, Ninh Kiều, Cần Thơ",10.01174,105.7617,,Hẻm 515 Đường 30 Tháng 4,Phường Hưng Lợi,Quận Ninh Kiều,Cần Thơ,True
603,ChIJi5tBOQCJoDERMF8iP5eeZXY,Coffee & MILK TEA HOA GIẤY,Quán cà phê,0973 793 335,"Coffee & MILK TEA HOA GIẤY, 151/39C Đ. Trần Hoàng Na, Hưng Lợi, Ninh Kiều, Cần Thơ",9.99752,105.75295,,Đường Trần Hưng Đạo,Phường Lê Bình,Quận Cái Răng,Cần Thơ,True
604,ChIJteomA5SJoDERYIt9H0UTkKk,Coffee 389 - Không Gian Làm Việc Lý Tưởng,Quán cà phê,0787 861 622,"2QM7+QW4 Coffee 389 - Không Gian Làm Việc Lý Tưởng, Hẻm 51, Xuân Khánh, Ninh Kiều, Cần Thơ",10.04961,105.76582,255,Đường Nguyễn Đệ,Phường An Hòa,Quận Ninh Kiều,Cần Thơ,True
606,ChIJefxlRQSJoDERlAw9SAehmm4,Cà phê Lâm,Quán cà phê,0786 848 333,"Cà phê Lâm, 35 Đường Số 4, KDC, Ninh Kiều, Cần Thơ",10.04603,105.76796,313,Đường Nguyễn Văn Cừ,Phường An Hòa,Quận Ninh Kiều,Cần Thơ,True
607,ChIJ09_7OXSJoDERAQwef0ZTjqI,Cafe điểm tâm sáng 666,Quán cà phê,,"Cafe điểm tâm sáng 666, 172C Đ. 3 Tháng 2, Hưng Lợi, Ninh Kiều, Cần Thơ",10.04292,105.76493,75,Đường Nguyễn Văn Cừ,Phường An Hòa,Quận Ninh Kiều,Cần Thơ,True
608,ChIJieMOU5iJoDER96C6wTiJD2k,Cà phê YUME,Quán cà phê,0919 189 169,"2QH6+GHG Cà phê YUME, Hẻm 51, Phường An Khánh, Ninh Kiều, Cần Thơ",10.02016,105.76002,132/22/10,Hẻm 132 Đường 3 Tháng 2,Phường Hưng Lợi,Quận Ninh Kiều,Cần Thơ,True
609,ChIJ9zpP7K2JoDERHNZ7OsSN1mk,Cà phê Quỳnh Anh,Quán cà phê,0934 125 124,"Cà phê Quỳnh Anh, 57 Đ. Nguyễn Tri Phương, Phường An Khánh, Ninh Kiều, Cần Thơ",10.04928,105.76475,57,Đường Nguyễn Đệ,Phường An Hòa,Quận Ninh Kiều,Cần Thơ,True
610,ChIJq0TAtIOJoDER40nrRHE8yfg,Đắng 2 Coffee,Quán cà phê,0376 167 391,"Đắng 2 Coffee, 59/3 đường Bờ Hồ Bún Xáng, Hẻm 51 Đường 3/2, Phường An Khánh, Ninh Kiều, Cần Thơ",10.05003,105.77211,85,Đường Nguyễn Văn Cừ,Phường An Hòa,Quận Ninh Kiều,Cần Thơ,True
611,ChIJnWw1DT-JoDERJgj0SZR5HKk,Cà Phê Tia Chớp,Quán cà phê,0939 555 836,"Cà Phê Tia Chớp, 91 Đ. B19, Khu dân cư 91B, Ninh Kiều, Cần Thơ",10.0469,105.76902,271,Đường Nguyễn Văn Cừ,Phường An Hòa,Quận Ninh Kiều,Cần Thơ,True
613,ChIJl1gqOCJjoDERgGWVbuTxOKE,Beeart & coffee,Quán cà phê,0913 303 780,"Beeart & coffee, 07 Hoàng Văn Thụ, An Hội, Ninh Kiều, Cần Thơ",10.04399,105.7658,389,Đường Nguyễn Văn Cừ,Phường An Hòa,Quận Ninh Kiều,Cần Thơ,True
614,ChIJt9zbOR2JoDERPS451j_NAGE,Doctor Coffee,Quán cà phê,,"Doctor Coffee, Ngã ba Đường Trần Minh Sơn và Đường Số 11, Phường An Khánh, Ninh Kiều, Cần Thơ",10.05131,105.77333,11,Đường Nguyễn Văn Cừ,Phường An Hòa,Quận Ninh Kiều,Cần Thơ,True
625,ChIJGQ9I6GqIoDERFVoEvlpRTQU,Quán Cà Phê Nhịp Sống Mới,Quán cà phê,0292 3890 195,"Quán Cà Phê Nhịp Sống Mới, 161 Nguyễn Văn Cừ Nối Dài, Phường An Khánh, Ninh Kiều, Cần Thơ",10.04545,105.76739,341,Đường Nguyễn Văn Cừ,Phường An Hòa,Quận Ninh Kiều,Cần Thơ,True
638,ChIJeZQlLE2JoDERZpCpwf6Cl4Q,Quán Cà Phê TD Coffee,Quán cà phê,,"Quán Cà Phê TD Coffee, 4 Đ. Nguyễn Văn Linh, Hưng Lợi, Ninh Kiều, Cần Thơ",10.04401,105.7564,2,Đường Tô Hiến Thành,Phường An Khánh,Quận Ninh Kiều,Cần Thơ,True
640,ChIJm-DG0NGJoDERKuJWxIKrOug,Cafe Phong Lan,Quán cà phê,0944 353 469,"Cafe Phong Lan, 335 Đ. Nguyễn Văn Linh, Phường An Khánh, Ninh Kiều, Cần Thơ",10.03631,105.74832,4,Hẻm Liên Tổ 4-5,Phường An Khánh,Quận Ninh Kiều,Cần Thơ,True
641,ChIJG9MX6LWJoDER-4gsHRwBaYs,cafe YÊN BÌNH,Quán cà phê,,"2Q94+RC3 cafe YÊN BÌNH, Đ. Trần Hoàng Na, Khu dân cư 91B, Ninh Kiều, Cần Thơ",10.04158,105.76332,6,Đường Nguyễn Văn Cừ Nối Dài,Phường An Khánh,Quận Ninh Kiều,Cần Thơ,True
642,ChIJaT9rxJSJoDERo7QTAZneZX8,Cà Phê Nhà Tôi,Quán cà phê,0779 633 247,"Cà Phê Nhà Tôi, 3A dãy B, 17 Đ. Trần Hoàng Na, Hưng Lợi, Ninh Kiều, Cần Thơ",10.03765,105.75878,165,Đường Nguyễn Văn Cừ Nối Dài,Phường An Khánh,Quận Ninh Kiều,Cần Thơ,True
643,ChIJLy5PM2aIoDERX11AUnXgQHc,Cà phê Làng Hoa,Quán cà phê,,"2PPW+R9J Cà phê Làng Hoa, Unnamed Road, Bình Thủy, Cần Thơ",10.02153,105.75969,6,Đường Số 2,Phường Hưng Lợi,Quận Ninh Kiều,Cần Thơ,True
644,ChIJdVhtV0yIoDERk21VSO1aXKo,Cà Phê Bida Ngọc Loan,Quán cà phê,,"Cà Phê Bida Ngọc Loan, 66 Đ. Trần Vĩnh Kiết, An Bình, Ninh Kiều, Cần Thơ",10.04137,105.75417,171,Đường Nguyễn Tri Phương,Phường An Khánh,Quận Ninh Kiều,Cần Thơ,True
645,ChIJURDz4SGIoDERAdb_YmNxwpI,Cà phê Mười Hai Giờ,Quán cà phê,0916 802 875,"Cà phê Mười Hai Giờ, 158/72, Hẻm 2, Đ. Nguyễn Việt Hồng, An Phú, Ninh Kiều, Cần Thơ",10.04037,105.78518,44,Đường Nguyễn Trãi,Phường Tân An,Quận Ninh Kiều,Cần Thơ,True
646,ChIJbxgL_FOHoDER9Cyrk8AWrnk,Coffee Thềm Xưa 2,Quán cà phê,,"Coffee Thềm Xưa 2, 60 Đ. Nguyễn Văn Cừ, Cái Khế, Ninh Kiều, Cần Thơ",10.03923,105.76103,136B,Đường Nguyễn Văn Cừ Nối Dài,Phường An Khánh,Quận Ninh Kiều,Cần Thơ,True
648,ChIJiUyU2TmIoDERsD78HZ6XLX8,Quán Cà Phê Ngọc,Quán cà phê,0939 329 817,"Quán Cà Phê Ngọc, 15 QL91B, Hưng Lợi, Ninh Kiều, Cần Thơ",10.03796,105.75974,148,Đường Nguyễn Văn Cừ Nối Dài,Phường An Khánh,Quận Ninh Kiều,Cần Thơ,True
651,ChIJx0Xl1cWJoDERrR71rAKAgjA,Forest Coffee,Quán cà phê,,"Forest Coffee, 133 Nguyễn Ngọc Trai, Xuân Khánh, Ninh Kiều, Cần Thơ",10.02529,105.76362,2,Hẻm 2 Nguyễn Văn Linh,Phường An Khánh,Quận Ninh Kiều,Cần Thơ,True
652,ChIJTa3dHqJioDERjJ-mp2k3sKg,Chè - cà phê - kem - sinh tố Mỹ Hoá,Quán cà phê,0292 3820 841,"Chè - cà phê - kem - sinh tố Mỹ Hoá, 62 Đường Hai Bà Trưng, Tân An, Ninh Kiều, Cần Thơ",10.03025,105.75146,,Đường Nguyễn Văn Cừ,Phường An Khánh,Quận Ninh Kiều,Cần Thơ,True
653,ChIJqwp-LjFjoDERz6vJzB_tuH0,Phúc Long coffee & tea,Quán cà phê,,"Phúc Long coffee & tea, 1 Đại lộ Hoà Bình, Tân An, Ninh Kiều, Cần Thơ",10.03082,105.75128,298,Đường Nguyễn Văn Linh,Phường An Khánh,Quận Ninh Kiều,Cần Thơ,True
654,ChIJAf_mNKBioDERt2_3RBXipko,F25 Cafe,Quán cà phê,,"F25 Cafe, 59 Đ. Ngô Văn Sở, Tân An, Ninh Kiều, Cần Thơ",10.03525,105.74646,312,Đường Nguyễn Văn Linh,Phường An Khánh,Quận Ninh Kiều,Cần Thơ,True
660,ChIJu57TJTdjoDERzpzxBtV3bOE,CHẠM CREAM COFFEE,Quán cà phê,0939 373 835,"CHẠM CREAM COFFEE, 134 Trần Phú, Cái Khế, Ninh Kiều, Cần Thơ",10.02111,105.75408,230,Đường Nguyễn Hiền,Phường An Khánh,Quận Ninh Kiều,Cần Thơ,True
661,ChIJ5b973TWJoDERUduiwmxq2w4,Quán cà phê võng cánh buồm,Quán cà phê,0777 892 606,"2QRC+4Q5 Quán cà phê võng cánh buồm, Đ. Lê Anh Xuân, An Nghiệp, Ninh Kiều, Cần Thơ",10.03224,105.74979,329,Đường Nguyễn Văn Linh,Phường An Khánh,Quận Ninh Kiều,Cần Thơ,True
669,ChIJeeWPyKiJoDER2QXdRA0PkPA,Hứng Coffee,Quán cà phê,0339 343 392,"Hứng Coffee, Đại Ngân, Đường số 3, Khu dân cư, Ninh Kiều, Cần Thơ 900000",10.01968,105.74056,,Đường Nguyễn Văn Cừ Nối Dài,Phường An Bình,Quận Ninh Kiều,Cần Thơ,True
684,ChIJFzCvKFGIoDERsh6yYPu9NrY,Cafe Kiều My 2,Quán cà phê,,"2PCR+8M4 Cafe Kiều My 2, Đ. Hoàng Quốc Việt, An Bình, Ninh Kiều, Cần Thơ",,,,,,,,True
685,ChIJT_16E9SJoDERxhnBK2RudKA,Cafe - Bida - Game Hoàng tử,Quán cà phê,0913 979 899,"Cafe - Bida - Game Hoàng tử, 602 Hẻm 553, Hưng Lợi, Ninh Kiều, Cần Thơ 900000",10.00563,105.74487,163/4,Đường Lộ Vòng Cung,Phường An Bình,Quận Ninh Kiều,Cần Thơ,True
686,ChIJhTcThyGIoDERkYWn9B4PTn4,Quán Cafe Toàn,Quán cà phê,0977 068 071,"Quán Cafe Toàn, 176 Đ. Nguyễn Việt Hồng, Xuân Khánh, Ninh Kiều, Cần Thơ",10.0243,105.7671,1,Quốc Lộ 1A,Phường Xuân Khánh,Quận Ninh Kiều,Cần Thơ,True
687,ChIJbav2XKGJoDERbsVvjMxO94o,Coffee Võng Tài Lộc,Quán cà phê,,"2QH2+XQX Coffee Võng Tài Lộc, Phường An Khánh, Ninh Kiều, Cần Thơ",10.01856,105.76214,134,Đường 3 Tháng 2,Phường Hưng Lợi,Quận Ninh Kiều,Cần Thơ,True
688,ChIJ0TvH4TSIoDER-cPFoBAPZgQ,Cà Phê Doggie,Quán cà phê,,"Cà Phê Doggie, 92 Đ. 30 Tháng 4, Hưng Lợi, Ninh Kiều, Cần Thơ",10.0104,105.7511,3,Quốc Lộ 1A,Phường An Bình,Quận Ninh Kiều,Cần Thơ,True
689,ChIJO3iMv_eJoDERQkBs2bkfC_4,BIG BEN Coffee & Beer - Chill Out,Quán cà phê,0974 023 890,"BIG BEN Coffee & Beer - Chill Out, Hẻm 51, Hưng Lợi, Ninh Kiều, Cần Thơ",10.00541,105.7517,,Đường Ngô Quyền,Phường Lê Bình,Quận Cái Răng,Cần Thơ,True
690,ChIJy9ikVDuIoDERHYLRHBXRWfE,Quán Cà Phê - Trà Sữa V2,Quán cà phê,0292 6506 777,"Quán Cà Phê - Trà Sữa V2, 144B Đ. 3 Tháng 2, Xuân Khánh, Ninh Kiều, Cần Thơ",9.99265,105.74875,169/1A,Quốc Lộ 1A,Phường Lê Bình,Quận Cái Răng,Cần Thơ,True
692,ChIJUxvV2-OrNTERylUg5YBD_io,Sứ Cà Phê - Quán Sứ,Quán cà phê,,"Sứ Cà Phê - Quán Sứ, 86 P. Quán Sứ, Cửa Nam, Hoàn Kiếm, Hà Nội",10.0243,105.7671,1,Quốc Lộ 1A,Phường Xuân Khánh,Quận Ninh Kiều,Cần Thơ,True
694,ChIJ092viEeIoDERmVovcQivVcw,Quán Cà Phê Chiếu Phim - Bóng Đá K+ Kim Ngân,Quán cà phê,0292 3508 797,"Quán Cà Phê Chiếu Phim - Bóng Đá K+ Kim Ngân, 91B QL91B, Phường An Khánh, Ninh Kiều, Cần Thơ",10.02208,105.76897,310/43,Đường 30 Tháng 4,Phường Hưng Lợi,Quận Ninh Kiều,Cần Thơ,True
696,ChIJt31onOWHoDERehWNHHg5pMU,Cheerio Coffee,Quán cà phê,0292 3884 877,"Cheerio Coffee, 300/69 Cách Mạng Tháng Tám, Hẻm 300, Bùi Hữu Nghĩa, Bình Thủy, Cần Thơ",10.02274,105.75594,,Đường Nguyễn Hiền,Phường An Khánh,Quận Ninh Kiều,Cần Thơ,True
697,ChIJT3GvNApjoDERgkYrb1kbKH0,FAIRY GARDEN,Quán cà phê,,"FAIRY GARDEN, 45 Lê Lợi, Cái Khế, Ninh Kiều, Cần Thơ",10.01267,105.75572,6,Đường 3 Tháng 2,Phường Hưng Lợi,Quận Ninh Kiều,Cần Thơ,True
698,ChIJp9nUFSKIoDER6F6EsXofdv8,Quán Cà Phê Quang Khánh,Quán cà phê,0292 3508 513,"Quán Cà Phê Quang Khánh, 146 Đ. Mậu Thân, An Phú, Ninh Kiều, Cần Thơ",10.02376,105.77093,60,Khu Dân Cư Số 9,Phường Xuân Khánh,Quận Ninh Kiều,Cần Thơ,True
701,ChIJY6nIPguJoDERfsP5pADMs1I,Cafe Ngọc Yến 7,Quán cà phê,,"2P9V+V7W Cafe Ngọc Yến 7, An Bình, Ninh Kiều, Cần Thơ",10.01377,105.75821,55,Đường 3 Tháng 2,Phường Hưng Lợi,Quận Ninh Kiều,Cần Thơ,True
702,ChIJL9pwmZOJoDERgGOrF7jlVJk,Cà phê Nguyệt Quế 3,Quán cà phê,0939 037 039,"Cà phê Nguyệt Quế 3, 236 Đ. Nguyễn Hiền, Hưng Lợi, Ninh Kiều, Cần Thơ",10.02499,105.76303,30/48K,Quốc Lộ 91B,Phường Hưng Lợi,Quận Ninh Kiều,Cần Thơ,True
703,ChIJN-lhE7eJoDERK2NSAdIn5cg,Tiệm cà phê Leng Keng,Quán cà phê,0939 842 171,"Tiệm cà phê Leng Keng, khu cán bộ giảng viên, đường số 10/Số 1 Đại học, Phường An Khánh, Ninh Kiều, Cần Thơ",10.02632,105.74847,49,Đường Trần Hoàng Na,Phường An Bình,Quận Ninh Kiều,Cần Thơ,True
707,ChIJu9kPkaBioDER8ZfQUSIp-mk,CAFE 50,Quán cà phê,0974 133 330,"CAFE 50, 50 Hẻm 1 Đ. Hoàng Văn Thụ, Tân An, Ninh Kiều, Cần Thơ",10.01403,105.76297,151,Đường Trần Hoàng Na,Phường Hưng Lợi,Quận Ninh Kiều,Cần Thơ,True
708,ChIJB7XkcZmJoDERZDAudTx1G_A,Milano LEO Coffee,Quán cà phê,,"Milano LEO Coffee, 152 Đ. Nguyễn Văn Cừ, Phường An Khánh, Ninh Kiều, Cần Thơ",10.02254,105.76346,,Hẻm 26 Nguyễn Văn Linh,Phường Hưng Lợi,Quận Ninh Kiều,Cần Thơ,True
709,ChIJkbMXSYiJoDERCLimjKenzWo,Quán Cà Phê Lụa Coffe,Quán cà phê,,"Quán Cà Phê Lụa Coffe, 118 Đ. Tô Hiến Thành, Phường An Khánh, Ninh Kiều, Cần Thơ",10.01201,105.76431,39B,Đường Trần Hoàng Na,Phường Hưng Lợi,Quận Ninh Kiều,Cần Thơ,True
712,ChIJzSqqcgaJoDERm20rDcWjPQk,Cafe Nhà Gỗ 91B,Quán cà phê,0914 844 799,"Cafe Nhà Gỗ 91B, 10 Đ. B23, Khu dân cư 91B, Ninh Kiều, Cần Thơ",10.02502,105.76455,1,Khu Vực 3,Phường An Khánh,Quận Ninh Kiều,Cần Thơ,True
713,ChIJr-gCtjeIoDERpckhIKGZfF8,Cafe Wifi Mái Lá,Quán cà phê,,"2QC6+527 Cafe Wifi Mái Lá, Hưng Lợi, Ninh Kiều, Cần Thơ",10.02615,105.7662,51,Hẻm 51F Đường 3 Tháng 2,Phường Xuân Khánh,Quận Ninh Kiều,Cần Thơ,True
714,ChIJczbjLDWJoDERXV1Cp6gOQ5A,Cafe Trầm,Quán cà phê,,"Cafe Trầm, A151/39B Đ. Trần Hoàng Na, Hưng Lợi, Ninh Kiều, Cần Thơ",10.022,105.7642,24b,Đường Nguyễn Văn Linh,Phường Hưng Lợi,Quận Ninh Kiều,Cần Thơ,True
715,ChIJT36z-CmJoDERyb4QOP2E6RM,Tự Cà Phê,Quán cà phê,0907 434 597,"Tự Cà Phê, 78 Đ. Cách Mạng Tháng 8, Cái Khế, Ninh Kiều, Cần Thơ",10.0501,105.78701,2,Đường Lê Lợi,Phường Cái Khế,Quận Ninh Kiều,Cần Thơ,True
716,ChIJBZEppjGJoDERSLSCcfhv4DA,Ai Cà Phê,Quán cà phê,,"Ai Cà Phê, 57a Hẻm 51, Phường An Khánh, Ninh Kiều, Cần Thơ",10.03291,105.74934,345,Đường Nguyễn Văn Linh,Phường An Khánh,Quận Ninh Kiều,Cần Thơ,True
731,ChIJ3384GPOJoDER_RYlGasWz-I,Cafe Ý Phát 24h,Quán cà phê,0948 532 876,"Cafe Ý Phát 24h, 475 Đ. 30 Tháng 4, Hưng Lợi, Ninh Kiều, Cần Thơ",10.0363,105.78308,46,Đường Trương Định,Phường An Cư,Quận Ninh Kiều,Cần Thơ,True
737,ChIJ2ROLle-JoDERThreM_PgDvM,Tiệm cà phê The The,Quán cà phê,,"Tiệm cà phê The The, 9c Đ. Nguyễn Văn Linh, Hưng Lợi, Ninh Kiều, Cần Thơ",,,,,,,,
738,ChIJnwUczzmIoDERcLdWSqqMOQE,quán cafe,Quán cà phê,0908 458 052,"quán cafe, 29 p tp, Đ. Nguyễn Văn Linh, Hưng Lợi, Ninh Kiều, Cần Thơ",,,,,,,,
754,ChIJN0E_oQKIoDERvqsqkdWgcdw,The Pipe Coffee,Quán cà phê,0911 612 778,"The Pipe Coffee, 10 Trần Quang Khải, An Hội, Ninh Kiều, Cần Thơ",,,,,,,,
762,ChIJ8zGX8DSJoDERgh0Mxmrw_JY,Cà phê Lê Huy,Quán cà phê,,"Cà phê Lê Huy, 13 KDC Thới Nhựt, Phường An Khánh, Ninh Kiều, Cần Thơ",,,,,,,,
769,ChIJbUbCcQqJoDERYC0VOXwCuCI,Quán Cà Phê Vườn Mận,Quán cà phê,0292 3849 982,"Quán Cà Phê Vườn Mận, 351 Ấp Mỹ Phước, Huyện Phong Điền, An Bình, Ninh Kiều, Cần Thơ",,,,,,,,
775,ChIJ0w7glTSIoDERRcX9KPzSYPo,Cafe Hoàng Hải,Quán cà phê,,"Cafe Hoàng Hải, 151 Đ. Trần Hoàng Na, Hưng Lợi, Ninh Kiều, Cần Thơ",,,,,,,,
780,ChIJ3QpzTd-JoDER_BKnLf6hl90,Mossy coffee & tea,Quán cà phê,0789 447 488,"Mossy coffee & tea, 178 Huỳnh Cương, An Cư, Ninh Kiều, Cần Thơ 900000",,,,,,,,
782,ChIJmRQGD1CJoDER3E7J4_XJv2g,GaNi coffee & tea,Quán cà phê,0939 833 179,"GaNi coffee & tea, 3c Đ. Mậu Thân, An Phú, Ninh Kiều, Cần Thơ",,,,,,,,
783,ChIJ7_FGPQeIoDERRcQnV843JV4,Cafe Võng Chiều Vàng,Quán cà phê,0982 177 727,"Cafe Võng Chiều Vàng, 51 Đ. Nguyễn Văn Cừ, Cái Khế, Ninh Kiều, Cần Thơ",,,,,,,,
784,ChIJH86jBOyJoDERsUXAfDnujZ8,Cafe 24h,Quán cà phê,0939 438 439,"2QQ5+CW3 Cafe 24h, Nguyễn Văn Cừ Nối Dài, Phường An Khánh, Ninh Kiều, Cần Thơ",,,,,,,,
785,ChIJ7wZxYT2JoDERt-L17wd1hrw,Tiệm cà phê bèo,Quán cà phê espresso,0907 946 094,"Tiệm cà phê bèo, 27 Đ. Trần Hoàng Na, Phường An Khánh, Ninh Kiều, Cần Thơ 700000",,,,,,,,
786,ChIJJ95tcJWJoDERk-iK0m5gXW0,CÀ PHÊ GREEN PARK,Quán cà phê,0917 432 442,"CÀ PHÊ GREEN PARK, 1 Đường số 6, Phường An Khánh, Ninh Kiều, Cần Thơ",,,,,,,,
787,ChIJy_r_svarNTERdtsyCvvWnb0,Cafe Phố Cũ,Quán cà phê,0939 389 900,"Cafe Phố Cũ, 39A P. Liên Trì, Trần Hưng Đạo, Hoàn Kiếm, Hà Nội",,,,,,,,
788,ChIJKc144niJoDERiJJ6ePYdL9k,Cà Phê Mộc,Quán cà phê,0985 126 711,"2QF4+JWM Cà Phê Mộc, Khu dân cư 91B, Ninh Kiều, Cần Thơ 900000",,,,,,,,
789,ChIJ-_SVga6JoDERQkg5F0SSSok,Cafe Emi,Quán cà phê,,"2QPJ+5FC Cafe Emi, Đ. Đề Thám, An Cư, Ninh Kiều, Cần Thơ",,,,,,,,
790,ChIJSQOoM8GJoDERp2bzOAj0524,CÀ PHÊ MILANO - NGUYỄN ĐỆ,Quán cà phê,0919 520 179,"CÀ PHÊ MILANO - NGUYỄN ĐỆ, 13 Đ. Nguyễn Đệ, An Hoà, Ninh Kiều, Cần Thơ",,,,,,,,
791,ChIJo2-qlGqIoDERDtu1BxMVWJ4,Cà Phê Meo Happy,Quán cà phê,0987 563 969,"Cà Phê Meo Happy, 163c/7 Đ. Nguyễn Văn Cừ, Phường An Khánh, Ninh Kiều, Cần Thơ",,,,,,,,
792,ChIJx2iMZBGIoDERm-sijgZIjks,Cà Phê Cây Khế,Quán cà phê,0903 368 226,"Cà Phê Cây Khế, 121 Đ. Nguyễn Văn Cừ, Phường An Khánh, Ninh Kiều, Cần Thơ",,,,,,,,
793,ChIJWb77MEuIoDEROBzJ6IOWOD8,Quán Cà Phê Minh Thư,Quán cà phê,0292 3838 694,"Quán Cà Phê Minh Thư, 10, Đường 3/2, Quận Ninh Kiều, TP Cần Thơ, Hưng Lợi, Ninh Kiều, Cần Thơ",,,,,,,,
794,ChIJ2U1F-LeJoDERqXlE22LvKHQ,Cafe Minh Phúc,Quán cà phê,,"2QC3+V75 Cafe Minh Phúc, Đ. Trần Hoàng Na, Phường An Khánh, Ninh Kiều, Cần Thơ",,,,,,,,
795,ChIJP2IHp_BjoDERtcXxrfl3XDg,Cà Phê Chất,Quán cà phê,0939 828 929,"Cà Phê Chất, 6B Đ. Ng. Hữu Hạnh, Tân An, Ninh Kiều, Cần Thơ",,,,,,,,
796,ChIJFddpMSCJoDERk-HWNrpaF8k,Cafe Sao Mai,Quán cà phê,0901 012 318,"Cafe Sao Mai, QL91B Đ. Nguyễn Văn Linh, Hưng Lợi, Bình Thủy, Cần Thơ",,,,,,,,
797,ChIJMaNQiDiIoDERAQOglmEsERs,Quán Cà Phê 24h,Quán cà phê,0939 440 487,"2QG5+7RJ Quán Cà Phê 24h, Nguyễn Văn Linh, Phường Hưng Lợi, Quận Ninh Kiều, Hưng Lợi, Ninh Kiều, Cần Thơ",,,,,,,,
798,ChIJJ6gqm0GIoDEReir_-AwXAHg,Cafe Net Hà,Quán cà phê,,"Cafe Net Hà, 10°01'54.5""N 105°45'12.4""E, 373C Đ. Nguyễn Văn Cừ, Phường An Khánh, Ninh Kiều, Cần Thơ",,,,,,,,
802,ChIJk1NsXiGIoDERk_pKg5g0sCE,Quán Cà Phê Xin Chào,Quán cà phê,,"Quán Cà Phê Xin Chào, 66 Đ. Mậu Thân, Xuân Khánh, Ninh Kiều, Cần Thơ",,,,,,,,
804,ChIJ0_XJMPJjoDERAc21mg9LnFw,Cafe 1998,Quán cà phê,0799 636 063,"Cafe 1998, Sông Hậu, Cái Khế, Ninh Kiều, Cần Thơ",,,,,,,,
813,ChIJTXcHmiGJoDERR45sgnV9Hl8,TRUNG VY COFFEE - Chuỗi Quán Cung Cấp Cafe Hạt ÁI XUÂN.,Quán cà phê,,"TRUNG VY COFFEE - Chuỗi Quán Cung Cấp Cafe Hạt ÁI XUÂN., 277 Đ. Nguyễn Văn Cừ, An Hoà, Ninh Kiều, Cần Thơ",,,,,,,,
817,ChIJryGZHj2JoDERhFw-pqePnsw,Coffee Gu 22,Quán cà phê,0905 860 890,"Coffee Gu 22, 298/4 Hẻm 4, Phường An Khánh, Ninh Kiều, Cần Thơ",,,,,,,,
821,ChIJ0SyE0bCJoDERYShCSQpIY_4,Quán Cà Phê Ven Sông,Quán cà phê,0939 692 944,"Quán Cà Phê Ven Sông, 1A Nguyễn Trãi, Lê Bình, Cái Răng, Cần Thơ",,,,,,,,
825,ChIJpyVzCLOJoDERR5fbAEbSXtA,Cà Phê Diệu Ngân,Quán cà phê,0994 513 979,"2Q52+X67 Cà Phê Diệu Ngân, 98 Đ. 3 Tháng 2, An Bình, Ninh Kiều, Cần Thơ",,,,,,,,
827,ChIJ28Dw1G6JoDER9qOZy9K7tZg,Cà Phê & Bida Duy Khôi,Quán cà phê,0908 723 457,"Cà Phê & Bida Duy Khôi, 30/28 KDC 30, Hưng Lợi, Ninh Kiều, Cần Thơ",,,,,,,,
830,ChIJ2fYYlPZjoDERoeb60ZSRVqc,Đồng Khởi Coffee,Quán cà phê,0939 141 672,"Đồng Khởi Coffee, 23 Đ. Đồng Khởi, Tân An, Ninh Kiều, Cần Thơ",,,,,,,,
832,ChIJbdyBX6BioDERCrynIlcBS5Q,Cà Phê Cà Mau,Quán cà phê,,"Cà Phê Cà Mau, 12 Đ. Nguyễn Khuyến, Tân An, Ninh Kiều, Cần Thơ",,,,,,,,
833,ChIJbZnWIr9joDERggQNHbP76kI,CÀ PHÊ K30,Quán cà phê,0292 2222 245,"CÀ PHÊ K30, LÔ K30, KHU DÂN CƯ NÔNG THỔ SẢN, Q, P, Cái Răng, Cần Thơ",,,,,,,,
836,ChIJMdHBfqFioDER6inmeF47sSg,Quán Cà Phê Hồng,Quán cà phê,0292 3827 628,"Quán Cà Phê Hồng, 12 Đường Đ. Trần Quốc Toản, Tân An, Ninh Kiều, Cần Thơ",,,,,,,,
842,ChIJtw5C12CJoDERKstElRlcH9M,Phúc Long Coffee & Tea (Vincom Hùng Vương),Phòng trà,,"Phúc Long Coffee & Tea (Vincom Hùng Vương), 2 Hùng Vương, Thới Bình, Ninh Kiều, Cần Thơ",,,,,,,,
843,ChIJOW73WkyJoDERpdJUf0g6_3A,Cookie Coffee,Quán cà phê,0939 818 312,"Cookie Coffee, 37 Đ. Nguyễn Văn Cừ, An Hoà, Ninh Kiều, Cần Thơ 90000",,,,,,,,
844,ChIJVxokokOJoDERBuzl1X63hkw,Shan Tuyết Tea and Coffee,Quán cà phê,,"Shan Tuyết Tea and Coffee, 138k Đ. Nguyễn Văn Cừ, Phường An Khánh, Ninh Kiều, Cần Thơ",,,,,,,,
845,ChIJkUnWnC2IoDERqRrK65LPH3o,Quán Café 262A,Quán cà phê,0292 3840 217,"Quán Café 262A, 262A Tầm Vu, Hưng Lợi, Ninh Kiều, Cần Thơ",,,,,,,,
846,ChIJ7RN9UxOIoDEROwgTI0aLWP0,Cà Phê Căn Tin,Quán cà phê,,"2QR5+28M Cà Phê Căn Tin, Đ. Nguyễn Tri Phương, Phường An Khánh, Ninh Kiều, Cần Thơ",,,,,,,,
847,ChIJc80jL7yJoDERH7F7CQmIHIM,Cà Phê YẾN,Quán cà phê,,"2PMW+GVP Cà Phê YẾN, Unnamed Road, Phường An Khánh, Ninh Kiều, Cần Thơ",,,,,,,,
848,ChIJWekk1x2JoDERv1EqHOycBkw,Cà Phê CÂY TRỨNG CÁ XINH,Quán cà phê,0945 498 030,"Cà Phê CÂY TRỨNG CÁ XINH, 4 Đ. Nguyễn Văn Cừ, Phường An Khánh, Ninh Kiều, Cần Thơ",,,,,,,,
849,ChIJ2ZEip0KIoDERpqhi_47AZxw,Cà Phê Hoa Cau,Quán cà phê,,"Cà Phê Hoa Cau, 339 Đ. Nguyễn Văn Linh, Phường An Khánh, Ninh Kiều, Cần Thơ",,,,,,,,
851,ChIJO7eakUKIoDERDZGUjL_Dmhw,Cà Phê Khả Phương Siêng,Quán cà phê,,"Cà Phê Khả Phương Siêng, 345 Đ. Nguyễn Văn Linh, Phường An Khánh, Ninh Kiều, Cần Thơ",,,,,,,,
852,ChIJT_OvwfKJoDERI-2mum2hKLM,SOHA coffee & tea,Quán cà phê,0368 505 789,"SOHA coffee & tea, 120 Nguyễn Văn Cừ Nối Dài, An Bình, Ninh Kiều, Cần Thơ",,,,,,,,
853,ChIJXywOt1WIoDERipcV1RgenoI,Cà Phê Phương Mai,Quán cà phê,,"2P8Q+Q2R Cà Phê Phương Mai, An Bình, Bình Thủy, Cần Thơ",,,,,,,,
854,ChIJAYNRMlGIoDER-egZV-8MRpM,Cafe Ali,Quán cà phê,,"2PCR+3FP Cafe Ali, An Bình, Ninh Kiều, Cần Thơ",,,,,,,,
859,ChIJGSEGQzeJoDERZ6zag3HYwjA,Cà Phê Đại Phát,Quán cà phê,0907 291 074,"Cà Phê Đại Phát, 21 Đ. A3, Hưng Lợi, Ninh Kiều, Cần Thơ",,,,,,,,
860,ChIJmehy5jaIoDERg-h8wIwtdag,Quán Cà Phê Cối Xay Gió,Quán cà phê,0292 2210 789,"Quán Cà Phê Cối Xay Gió, Tp, 151 Hẻm 132 Đ. 3 Tháng 2, Hưng Lợi, Ninh Kiều, Cần Thơ 900000",,,,,,,,
861,ChIJcfI0FFqJoDERe-dZgdvbY6c,Coffee khánh tiên,Quán cà phê,0932 637 196,"Coffee khánh tiên, 118 14 Đ. Trần Hoàng Na, Hưng Lợi, Ninh Kiều, Cần Thơ",,,,,,,,
862,ChIJVzm_ob-JoDERwOvwf05UZic,Phyto Cafe-Cafe Dinh Dưỡng,Quán cà phê,,"Phyto Cafe-Cafe Dinh Dưỡng, 449 Đ. 30 Tháng 4, Hưng Lợi, Ninh Kiều, Cần Thơ",,,,,,,,
864,ChIJQwS4f0-JoDERBsV8lx21ohI,MILAN COFFEE -BILLARDS,Quán cà phê,0916 469 933,"MILAN COFFEE -BILLARDS, Hẻm 51 hồ bún xáng, Cần Thơ",,,,,,,,
868,ChIJz7ahNw-JoDERZ8WMz1HZt4M,Cafe Thảo,Quán cà phê,,"Cafe Thảo, Phường An Khánh, Ninh Kiều, Cần Thơ",,,,,,,,
870,ChIJkfWWRv-HoDER79EIPMz915k,Cafe Bảy Cây Sưa,Quán cà phê,,"3Q5J+9CV Cafe Bảy Cây Sưa, Đ. Nguyễn Văn Cừ, Cái Khế, Ninh Kiều, Cần Thơ",,,,,,,,
871,ChIJBbayGsaJoDERr-G3TelqZ-Y,Cà phê tình nhân Bi Coffee 3,Quán cà phê,0789 687 968,"Cà phê tình nhân Bi Coffee 3, 236 Nguyễn Văn Cừ Nối Dài, Phường An Khánh, Ninh Kiều, Cần Thơ",,,,,,,,
873,ChIJl4djVv-HoDERc5_2E3bgQ28,Cà phê Số Đỏ,Quán cà phê,0292 3855 685,"Cà phê Số Đỏ, 6/138c Đ. Nguyễn Văn Cừ, Cái Khế, Ninh Kiều, Cần Thơ",,,,,,,,
878,ChIJxw8ZGASIoDERHxp6vxbUpe4,Quán Cà Phê Bằng Lăng,Quán cà phê,0292 3832 471,"Quán Cà Phê Bằng Lăng, 24/44A, Trần Việt Châu, Quận Ninh Kiều, Tp Cần Thơ",,,,,,,,
879,ChIJg_CQBKVjoDER8I9v57V281A,Lona Coffee House,Quán cà phê,0783 994 666,"Lona Coffee House, Bờ kè, Sông Hậu, Cái Khế, Ninh Kiều, Cần Thơ 900000",,,,,,,,
885,ChIJMcOb1N1joDERlRLWPMXwwWo,CÀ PHÊ TOMMY,Quán cà phê,,"CÀ PHÊ TOMMY, 11-6 Trần Quang Khải, Cái Khế, Ninh Kiều, Cần Thơ",,,,,,,,
894,ChIJt17DmK-JoDERXwaWZ2e06So,Rex Coffee,Quán cà phê,,"Rex Coffee, 75 Đ. Võ Trường Toản, An Hoà, Ninh Kiều, Cần Thơ",,,,,,,,
898,ChIJO9A4uk2JoDER0ppy_nn-HgI,Tiệm cà phê Phúc 1975,Quán cà phê,0333 032 939,"2QQ8+WHV Tiệm cà phê Phúc 1975, Hẻm 51, Xuân Khánh, Ninh Kiều, Cần Thơ",,,,,,,,
900,ChIJR81FQEOJoDERt_mAM_gJby4,Cà phê bánh Muồng Hoa Đào,Quán cà phê,,"Cà phê bánh Muồng Hoa Đào, Hem 9, Đ. Trần Nam Phú, Phường An Khánh, Ninh Kiều, Cần Thơ",,,,,,,,
904,ChIJc7pgObKJoDERa62pEit39Mo,Coffee Tường Vy,Quán cà phê,0766 958 921,"Coffee Tường Vy, 4 Lộ Vòng Cung, An Bình, Ninh Kiều, Cần Thơ",,,,,,,,
905,ChIJt0CsbzqIoDERLeFKl3uo5p8,Pha Lê Cafe,Quán cà phê,,"Pha Lê Cafe, 232 Đ. 3 Tháng 2, An Bình, Ninh Kiều, Cần Thơ",,,,,,,,
908,ChIJa1RCkPaJoDERiXcb7QSYA_A,Nâu Coffee,Quán cà phê,0933 719 109,"Nâu Coffee, 65 Đ. A3, Khu dân cư 91B, Ninh Kiều, Cần Thơ",,,,,,,,
909,ChIJG62j02yJoDER-3EQC0U0gX4,Cà Phê Võng Bảy Trường,Quán cà phê,,"Cà Phê Võng Bảy Trường, 410 Đ. Nguyễn Văn Linh, Hưng Lợi, Ninh Kiều, Cần Thơ",,,,,,,,
915,ChIJORSgbTyHoDERKEdbPCEcvBc,Cafe Sóc Cần Thơ,Quán cà phê,,"3Q65+XMF Cafe Sóc Cần Thơ, Hẻm 91 Cách Mạng Tháng Tám, An Thới, Bình Thủy, Cần Thơ",,,,,,,,
916,ChIJqWPanOOJoDERCrcfKwYKp_Y,Cafe Like,Quán cà phê,,"Cafe Like, 16-18 Đ. Phan Văn Trị, An Lạc, Ninh Kiều, Cần Thơ",,,,,,,,
917,ChIJJa--aTSIoDER_qbtK8JZpQA,Quán Cà Phê 150,Quán cà phê,0292 3837 461,"Quán Cà Phê 150, 150, Đường 30/4, Quận Ninh Kiều, Hưng Lợi, Ninh Kiều, Cần Thơ",,,,,,,,
918,ChIJnTsMv2OrNTERhQfH0wpy0oM,Quán cafe đẹp,Quán cà phê,,"2R7J+2V2 Quán cafe đẹp, Nam Đồng, Đống Đa, Hà Nội",,,,,,,,
937,ChIJrVQorW2IoDERD9TuU4X530Q,Cà Phê Lý Tưởng,Quán cà phê,0909 957 555,"Cà Phê Lý Tưởng, 95 Đ. Số 2, Phường An Khánh, Ninh Kiều, Cần Thơ",,,,,,,,
938,ChIJn8yyzXeJoDER-R3O5K3ZgIU,Cà Phê 39,Quán cà phê,0949 535 468,"Cà Phê 39, 39 Đ. Tô Hiến Thành, Phường An Khánh, Ninh Kiều, Cần Thơ",,,,,,,,
939,ChIJQc-jkwmJoDERIC5HuJiAYcY,Cà phê rang mộc 1 & 2,Quán cà phê,,"Cà phê rang mộc 1 & 2, 134 Đ. Nguyễn Văn Cừ, Phường An Khánh, Ninh Kiều, Cần Thơ",,,,,,,,
940,ChIJ9YWlsFiJoDERflFVaiW7RM8,Quán Cà Phê MU ( MU COFFEE SPORT),Quán cà phê,0939 986 388,"Quán Cà Phê MU ( MU COFFEE SPORT), Góc số 7 và, Đ. Số 2, khu CBĐHCT, Ninh Kiều, Cần Thơ",,,,,,,,
943,ChIJhe03QtWJoDERlZax1NmlFP4,Cafe Milano,Quán cà phê,,"Cafe Milano, 337 Đ. Nguyễn Văn Linh, Phường An Khánh, Ninh Kiều, Cần Thơ",,,,,,,,
945,ChIJ11oL10SIoDER16QqXs2zWLY,Quán Cafe BiBi,Quán cà phê,0913 784 646,"Quán Cafe BiBi, 40 Nguyễn Văn Cừ Nối Dài, An Bình, Ninh Kiều, Cần Thơ",,,,,,,,
947,ChIJJXqsIFGIoDER7r9p9PvoOk0,Cà Phê Ngọc Xoan,Quán cà phê,0786 644 468,"Cà Phê Ngọc Xoan, 261 Nguyễn Văn Cừ Nối Dài, An Bình, Ninh Kiều, Cần Thơ",,,,,,,,
948,ChIJb1iWkFqIoDERugofUOymMEY,Tiệm Cà Phê Ngọc Giàu,Quán cà phê,0292 3502 337,"Tiệm Cà Phê Ngọc Giàu, 10K4, Đường Nguyễn Văn Cừ, Quận Ninh Kiều, An Bình, Ninh Kiều, Cần Thơ",,,,,,,,
951,ChIJNZt9Ya2JoDERfh9HlL2b7pk,Quán Cà Phê Thanh Trúc,Quán cà phê,0939 957 678,"Quán Cà Phê Thanh Trúc, 247E, Đường Cái Sơn Hàng Bàng, Quận Cái Răng, An Bình, Ninh Kiều, Cần Thơ",,,,,,,,
955,ChIJKeDW-6CJoDERZk_Rg-RhbNY,Quán Cà Phê Thanh Thúy,Quán cà phê,0292 3743 547,"Quán Cà Phê Thanh Thúy, 65, Đường Lộ Vòng Cung, Quận Ninh Kiều, An Bình, Ninh Kiều, Cần Thơ",,,,,,,,
962,ChIJoT6GjDaIoDERndTNfnwwyUw,Quán Cà Phê 119,Quán cà phê,0292 3830 458,"Quán Cà Phê 119, 119, Đường 3/2, Quận Ninh Kiều, Hưng Lợi, Ninh Kiều, Cần Thơ",,,,,,,,
963,ChIJExBtQjiIoDER0xDAQV9rohA,Quán Cà Phê Hồng Nhung,Quán cà phê,0772 981 137,"Quán Cà Phê Hồng Nhung, 31 Quốc Lộ 91B, Quận Ninh Kiều, Tp Cần Thơ",,,,,,,,
966,ChIJ-Uuc9jSIoDERigb4f0FCMVc,Cà Phê Trân Trân,Quán cà phê,0292 6250 655,"Cà Phê Trân Trân, 153 Đ. 30 Tháng 4, Hưng Lợi, Ninh Kiều, Cần Thơ",,,,,,,,
973,ChIJX8Z0gCyJoDERou9KLwLLAjw,CAFE MỘC 1986,Quán cà phê,0977 170 977,"CAFE MỘC 1986, 1 Đ. Mậu Thân, Xuân Khánh, Ninh Kiều, Cần Thơ",,,,,,,,
975,ChIJTyymWkZjoDERVVqeXnmkpaI,Cà phê bảo tàng,Quán cà phê,,"Cà phê bảo tàng, 1 Đại lộ Hoà Bình, Tân An, Ninh Kiều, Cần Thơ",,,,,,,,
978,ChIJDaX6PyeIoDER--Dv9lfv2KU,Coffee MINH ( cà phê ) nguyên chất,Quán cà phê,,"Coffee MINH ( cà phê ) nguyên chất, 1a Quang Trung, An Lạc, Ninh Kiều, Cần Thơ",,,,,,,,
979,ChIJozwNBDeJoDERXM60BsfTaBw,Tiệm cà phê 1990s,Quán cà phê,0907 383 665,"Tiệm cà phê 1990s, 77 Đ. Trần Văn Hoài, Xuân Khánh, Ninh Kiều, Cần Thơ",,,,,,,,
980,ChIJ7XhicgGJoDERmwJMZOxD-lA,A Coffee,Quán cà phê,0971 189 518,"A Coffee, 6 Đường B39, Khu dân cư 91B, Ninh Kiều, Cần Thơ 90000",,,,,,,,
981,ChIJ0ZappTKJoDER_HoDEjICiXo,Cửa Hàng Cà Phê 65,Quán cà phê,,"Cửa Hàng Cà Phê 65, Cầu 3, Đ. Nguyễn Văn Linh, Phường An Khánh, Ninh Kiều, Cần Thơ",,,,,,,,
982,ChIJga_WxTWIoDERY9VUyW72qVI,Cà Phê 93,Quán cà phê,,"Cà Phê 93, 95 Đ. 3 Tháng 2, Hưng Lợi, Ninh Kiều, Cần Thơ",,,,,,,,
983,ChIJpYfNQjqIoDERmhlfFV_N8ps,Quán Cà Phê 178/4,Quán cà phê,0292 2460 343,"Quán Cà Phê 178/4, 178/2, Đường 3/2, Quận Ninh Kiều, Tp Cần Thơ, Đ. 3 Tháng 2, Hưng Lợi, Ninh Kiều, Cần Thơ",,,,,,,,
984,ChIJ0Sq6DD4vdTERwUZF1w5QOaw,View Đẹp,Quán cà phê,,"View Đẹp, 159 Đ. Phạm Ngũ Lão, Phường Phạm Ngũ Lão, Quận 1, Thành phố Hồ Chí Minh",,,,,,,,
993,ChIJm5Q-CbyHoDER7xMrqR6HkFM,Cafe Bảo Anh,Quán cà phê,0888 178 718,"Cafe Bảo Anh, 91 Đ. Nguyễn Văn Cừ, Cồn Khương, Ninh Kiều, Cần Thơ",,,,,,,,
999,ChIJwwYW2LNjoDERe4eynM5YV04,Cafe Võng Sân Vườn Minh Thư,Quán cà phê,0939 699 802,"Cafe Võng Sân Vườn Minh Thư, 3A Lê Lợi, Cái Khế, Ninh Kiều, Cần Thơ",,,,,,,,
1022,ChIJ6ewbWTRjoDERkTRoOor1cCk,Golden Coffee,Quán cà phê,,"Golden Coffee, 13 Nguyễn Trãi, An Hội, Ninh Kiều, Cần Thơ",,,,,,,,
1023,ChIJ_ZeIN2WJoDERNAc7kcobMX0,Cà phê sân vườn,Quán cà phê,,"Cà phê sân vườn, 15 Đường Yết Kiêu, An Nghiệp, Ninh Kiều, Cần Thơ",,,,,,,,
1026,ChIJc6h8PsiJoDERrrOiJOqZPy8,Cà Phê Ngọc Nhớ,Quán cà phê,0939 220 102,"Cà Phê Ngọc Nhớ, 686 Đ. Mậu Thân, An Hoà, Ninh Kiều, Cần Thơ",,,,,,,,
1032,ChIJwfEq7ECJoDERfYv8D9-3nD4,Cà Phê Cát Tường,Quán cà phê,,"Cà Phê Cát Tường, 294 Võ Văn Kiệt, An Thới, Bình Thủy, Cần Thơ",,,,,,,,
1034,ChIJ9XpuudyJoDERWpLUqF_5_ps,Cafe An Nhiên,Quán cà phê,,"Cafe An Nhiên, 111 Võ Văn Kiệt, An Hoà, Ninh Kiều, Cần Thơ",,,,,,,,
1039,ChIJO5bRkWuIoDERRjYph26JWsc,Quán Cà Phê Tuấn,Quán cà phê,0814 214 239,"Quán Cà Phê Tuấn, 17, Đường 18, Khu Tái Định Cư, Phường An Khánh, Quận Ninh Kiều, Thành Phố Cần Thơ, Phường An Khánh, Ninh Kiều, Cần Thơ",,,,,,,,
1041,ChIJk2dIDzOJoDERPO6CqpzHr-w,Cà Phê Sạch Black Gold - MiO,Quán cà phê,,"Cà Phê Sạch Black Gold - MiO, 385 Đ. Trần Nam Phú, Xuân Khánh, Ninh Kiều, Cần Thơ 900000",,,,,,,,
1044,ChIJOW1tkBSIoDERatED5CEbnkM,Tiệm Cà Phê Chiến Thắng,Quán cà phê,0292 3600 790,"Tiệm Cà Phê Chiến Thắng, 132, Nguyễn Văn Cừ, Quận Ninh Kiều, Phường An Khánh, Ninh Kiều, Cần Thơ",,,,,,,,
1047,ChIJbWQF9kKIoDERnc9D0K2f1OQ,Quán Cà Phê Hồng Ngọc,Quán cà phê,0292 2240 189,"Quán Cà Phê Hồng Ngọc, 307 QL91B, Phường An Khánh, Ninh Kiều, Cần Thơ",,,,,,,,
1048,ChIJHWy5BmiIoDERdRW8wSUVHgU,Quán Cà Phê Ngọc Lan,Quán cà phê,0938 520 843,"2PMW+WV8 Quán Cà Phê Ngọc Lan, QL91B, Phường An Khánh, Ninh Kiều, Cần Thơ",,,,,,,,
1050,ChIJnYg5HZ-JoDERbw2RHaw0XKI,Cafe võng,Quán cà phê,,"2PPX+W8X Cafe võng, Đường Số 3, Phường An Khánh, Ninh Kiều, Cần Thơ",,,,,,,,
1054,ChIJIV6p60OIoDERT8_m-774FjU,Quán Ca Phê Wif 99,Quán cà phê,,"Quán Ca Phê Wif 99, 138 Nguyễn Văn Cừ Nối Dài, Phường An Khánh, Ninh Kiều, Cần Thơ",,,,,,,,
1056,ChIJZcMBIVGIoDEREbgf_hbd_nw,Café Soccer,Quán cà phê,,"Café Soccer, 413 Nguyễn Văn Cừ Nối Dài, An Bình, Ninh Kiều, Cần Thơ",,,,,,,,
1067,ChIJJc-p2I-rNTERUJFiMSufmkQ,Cà Phê Kiến,Quán cà phê,,"Cà Phê Kiến, 4 P. Đỗ Hành, Nguyễn Du, Hai Bà Trưng, Hà Nội",,,,,,,,
1068,ChIJM6T5DrKJoDERoK0ny_JI4Gg,Cafe Anh Khoa,Quán cà phê,0292 3914 738,"Cafe Anh Khoa, 226 Lộ Vòng Cung, An Bình, Ninh Kiều, Cần Thơ",,,,,,,,
1080,ChIJcSDjXrOJoDERC6zzWL8jOsY,Quán Cà Phê KAFFA ( hồng thủy cũ),Quán cà phê,,"Quán Cà Phê KAFFA ( hồng thủy cũ), 107 Đ. 3 Tháng 2, An Bình, Ninh Kiều, Cần Thơ",,,,,,,,
1082,ChIJRQH3EUCJoDERaeU6RkfSnus,Cà phê Balli,Quán cà phê,,"Cà phê Balli, 350D Đ. Trần Hoàng Na, KV6, Ninh Kiều, Cần Thơ",,,,,,,,
1085,ChIJFZ0O1DSIoDERcgnF2q391M0,Quán Cà Phê Duy,Quán cà phê,0292 3840 883,"Quán Cà Phê Duy, 91/37, Đường 30/4, Quận Ninh Kiều, Tp Cần Thơ, Hưng Lợi, Ninh Kiều, Cần Thơ",,,,,,,,
1088,ChIJW_IWFdCJoDERxVh3XcrheJM,Coffee Nhân Trí 4.0,Quán cà phê,0292 2222 248,"Coffee Nhân Trí 4.0, 70 Ngô Sĩ Liên, Hưng Lợi, Ninh Kiều, Cần Thơ",,,,,,,,
1089,ChIJv5PJZDiIoDERYlBrfYfQ858,Cà Phê Sân Vườn Thời Gian,Quán cà phê,,"Cà Phê Sân Vườn Thời Gian, 321 Đ. Nguyễn Văn Linh, Hưng Lợi, Ninh Kiều, Cần Thơ",,,,,,,,
1090,ChIJifu5SjWIoDERR3i5AEf35jo,Mode Coffee Dj Lounge,Quán cà phê,0949 944 348,"Mode Coffee Dj Lounge, 354 Hẻm 553, Xuân Khánh, Ninh Kiều, Cần Thơ",,,,,,,,
1092,ChIJZ-cXqTaJoDERTONFOKkEj_Y,Home Coffee,Quán cà phê,0916 777 386,"Home Coffee, 178 Đ. 3 Tháng 2, Hưng Lợi, Ninh Kiều, Cần Thơ 90000",,,,,,,,
1097,ChIJQ37LdKSJoDERNN7j1wQLjZk,GU 65 Coffee,Quán cà phê,,"2Q86+78C GU 65 Coffee, Đ. Trần Hoàng Na, Hưng Lợi, Ninh Kiều, Cần Thơ",,,,,,,,
1109,ChIJwy14N6BioDERuWNwQGdDrN0,Cà Phê Mỹ Phương,Quán cà phê,0292 3828 300,"Cà Phê Mỹ Phương, 32 Đại lộ Hoà Bình, Tân An, Ninh Kiều, Cần Thơ",,,,,,,,
1115,ChIJnax0TSaJoDER-8MN6NiNOeE,Quán coffee gin 108,Quán cà phê,0796 901 579,"Quán coffee gin 108, 10 Đ. 30 Tháng 4, An Lạc, Ninh Kiều, Cần Thơ",,,,,,,,
1116,ChIJi6MpLjiIoDERfhvmWJneMzU,K Coffee Cần Thơ,Quán cà phê,0292 3508 941,"2QC6+M99 K Coffee Cần Thơ, Metro, Đường Ra ST, Hưng Lợi, Ninh Kiều, Cần Thơ",,,,,,,,
1122,ChIJs_oNAalioDERnLnPn-oD-38,Quán Cà Phê Bích Phượng,Quán cà phê,0292 3761 666,"2QWM+5X2 Quán Cà Phê Bích Phượng, Lô J, Trần Văn Khéo, Quận Ninh Kiều, Tp Cần Thơ, Cái Khế, Ninh Kiều, Cần Thơ",,,,,,,,
1134,ChIJZeK2tEqJoDERuLemeQZfiMQ,Cà phê Trung Nguyên,Quán cà phê,,"Cà phê Trung Nguyên, 27 duong Hùng Vương, An Hội, Ninh Kiều, Cần Thơ",,,,,,,,
1138,ChIJB59Vkw6IoDERDRxRIa3MnyY,Quán cafe đầu hẻm 65 Võ Trường Toản,Quán cà phê,,"2QX8+69Q Quán cafe đầu hẻm 65 Võ Trường Toản, Hẻm 65, An Hoà, Ninh Kiều, Cần Thơ",,,,,,,,
1141,ChIJr8OuhKGJoDERd5dadur1ADE,Cà phê 57,Quán cà phê,0854 504 961,"Cà phê 57, 57 Đường số 6, Phường An Khánh, Ninh Kiều, Cần Thơ",,,,,,,,
1143,ChIJsXWysuOJoDERVLy7X0uxyH4,Cà phê Anh Thư,Quán cà phê,,"Cà phê Anh Thư, 132 Đ. Nguyễn Văn Cừ, p, Ninh Kiều, Cần Thơ",,,,,,,,
1146,ChIJO55HvEOJoDERDJ4bY7J-gX8,NGUYÊN KHANG COFFEE,Quán cà phê,,"NGUYÊN KHANG COFFEE, 339 Đ. Nguyễn Văn Linh, Phường An Khánh, Ninh Kiều, Cần Thơ",,,,,,,,
1148,ChIJwcCAi0KIoDERHhg9PnrBTQc,Quán Cà Phê Thanh Thảo,Quán cà phê,0292 6555 469,"Quán Cà Phê Thanh Thảo, 54B3, Khu Vực 1, Phường An Khánh, Quận Ninh Kiều, Phường An Khánh, Ninh Kiều, Cần Thơ",,,,,,,,
1149,ChIJo6ZHAGiIoDER5ONAXftvBLM,Quán Cà Phê Quỳnh Anh,Quán cà phê,0946 310 038,"Quán Cà Phê Quỳnh Anh, 34, Đường 16, Phường An Khánh, Quận Ninh Kiều, Phường An Khánh, Ninh Kiều, Cần Thơ",,,,,,,,
1151,ChIJc0IlzlOIoDERm_eIhxU-Hpw,Cà Phê Ngọc Trâm,Quán cà phê,,"Cà Phê Ngọc Trâm, 313 Đ. Hoàng Quốc Việt, An Bình, Ninh Kiều, Cần Thơ",,,,,,,,
1153,ChIJZ7G5TUuIoDERhGIx-YvOd8k,Quán Cà Phê Kim Ngân,Quán cà phê,0292 3222 715,"Quán Cà Phê Kim Ngân, 167/4, Quốc Lộ 1A, P. Lê Bình, Quận Cái Răng, Hưng Lợi, Ninh Kiều, Cần Thơ",,,,,,,,
1154,ChIJx2Id1xOJoDER7SUNo8572b8,Quán Cà Phê Yến Nhi,Quán cà phê,0292 3850 933,"Quán Cà Phê Yến Nhi, 177 Ấp Mỹ Phước, Huyện Phong Điền, Mỹ Khánh, Phong Điền, Cần Thơ",,,,,,,,
1157,ChIJZ0UJ7o-rNTER2nSpYi3Figw,Cà Phê 36,Quán cà phê,,"Cà Phê 36, 36 P. Nguyễn Thượng Hiền, Nguyễn Du, Hai Bà Trưng, Hà Nội",,,,,,,,
1161,ChIJxzGrKWSJoDERCuEV9Yf2Tfo,Cafe Ngọc Nhi,Quán cà phê,,"2P6W+2RW Cafe Ngọc Nhi, An Bình, Ninh Kiều, Cần Thơ",,,,,,,,
1162,ChIJuffRW7OJoDERnljHHZPIYyg,Cà Phê KIM PHÁT,Quán cà phê,0913 973 797,"2Q62+GRP Cà Phê KIM PHÁT, An Bình, Ninh Kiều, Cần Thơ",,,,,,,,
1165,ChIJexQ-_LaJoDERpPPtUiPlN9w,Quán Cà Phê Như Ý,Quán cà phê,0292 3843 391,"Quán Cà Phê Như Ý, 430C Hậu Thạnh Mỹ, Lê Bình, Cái Răng, Cần Thơ",,,,,,,,
1166,ChIJ4bOeuxeJoDER2w4OT6nU-7I,Cà phê Lê Thông,Quán cà phê,0939 117 156,"Cà phê Lê Thông, 71 Đường B28, Phường An Khánh, Ninh Kiều, Cần Thơ",,,,,,,,
1168,ChIJO6E9ukSJoDER9eqes9CVwMw,TEA AND COFFE 1988,Quán cà phê,,"TEA AND COFFE 1988, 151 Đ. Trần Hoàng Na, Hưng Lợi, Ninh Kiều, Cần Thơ",,,,,,,,
1172,ChIJ3aAKvPmJoDERhh1df96_oTw,Go coffee,Quán cà phê,,"2QPC+2Q6 Go coffee, Đ. Cao Thắng, Xuân Khánh, Ninh Kiều, Cần Thơ",,,,,,,,
1175,ChIJ35-Zd8pjoDERQ_iXskCoZ7s,Cà phê bình dân,Quán cà phê,,"Cà phê bình dân, 19-21 Đ. Thủ Khoa Huân, Tân An, Ninh Kiều, Cần Thơ",,,,,,,,
1176,ChIJ-SqthZ9ioDERWXJ9cK2PLdo,Quán Cà Phê 44,Quán cà phê,0292 3821 056,"Quán Cà Phê 44, 44 Đ. Nam Kỳ Khởi Nghĩa, Tân An, Ninh Kiều, Cần Thơ",,,,,,,,
1177,ChIJj0cWRTWJoDERxKw3cRUxUhk,216 COFFEE,Quán cà phê,,"216 COFFEE, 216/40e Hẻm 216, Hưng Lợi, Ninh Kiều, Cần Thơ",,,,,,,,
1178,ChIJp82NfiGIoDERFIw2t02Pmig,Quán Cà Phê Mậu Thân,Quán cà phê,0292 3899 160,"Quán Cà Phê Mậu Thân, 102 Đ. Mậu Thân, Xuân Khánh, Ninh Kiều, Cần Thơ",,,,,,,,
1179,ChIJb7_pNzWIoDERXoBsLXVjun0,Quán Cà Phê 50,Quán cà phê,0292 3837 954,"Quán Cà Phê 50, 50 Đ. 30 Tháng 4, Hưng Lợi, Ninh Kiều, Cần Thơ",,,,,,,,
1180,ChIJqa9LT_-HoDER6M1-4zM57VE,Quán Cà Phê Hoàng Phú,Quán cà phê,0939 656 957,"3Q5J+M99 Quán Cà Phê Hoàng Phú, Nguyễn Văn Cừ nối dài, Cồn Khương, Ninh Kiều, Cần Thơ",,,,,,,,
1186,ChIJL0reZe2JoDERFtFhX88Gywg,Cafe Góc Phố,Quán cà phê,,"Cafe Góc Phố, 156 Đ. Mậu Thân, An Phú, Ninh Kiều, Cần Thơ",,,,,,,,
1192,ChIJiw9OMQeIoDERLmchPQjmA04,Cơ Sở Chế Biến Cà Phê Tiến Thắng,Quán cà phê,0292 3811 118,"Cơ Sở Chế Biến Cà Phê Tiến Thắng, 36 Đoàn Thị Điểm, Cái Khế, Ninh Kiều, Cần Thơ",,,,,,,,
1207,ChIJx3y4ma9ioDERhLvT09Xeni8,Cafe Ngọc Xuân,Quán cà phê,,"2QVR+MJ2 Cafe Ngọc Xuân, Cái Khế, Ninh Kiều, Cần Thơ",,,,,,,,
1208,ChIJg_RQZKlioDERelXSiuJydHM,Coffee MK,Quán cà phê,0963 881 191,"2QXP+8F2 Coffee MK, Cái Khế, Ninh Kiều, Cần Thơ",,,,,,,,
1221,ChIJWR8_4oGJoDERpKVFfcoB1tE,Cà phê Chốn Cũ Cần Thơ,Quán cà phê,,"2QRH+9V5 Cà phê Chốn Cũ Cần Thơ, An Cư, Ninh Kiều, Cần Thơ",,,,,,,,
1222,ChIJD78wxDaJoDERb9H9EZUK47o,Cà phê Cốc,Quán cà phê,,"Cà phê Cốc, 149B Hoàng Văn Thụ, An Cư, Ninh Kiều, Cần Thơ",,,,,,,,
1223,ChIJrablRyeIoDERKJTYoceOB0M,Quán Cà Phê 54,Quán cà phê,0292 3827 531,"Quán Cà Phê 54, 30 Quang Trung, An Lạc, Ninh Kiều, Cần Thơ",,,,,,,,
1229,ChIJ2TNgc16JoDERfjCUGCRfow8,Quán Cà Phê Duy Tâm,Quán cà phê,,"2QR6+8VM Quán Cà Phê Duy Tâm, Nguyễn Văn Cừ Nối Dài, Phường An Khánh, Ninh Kiều, Cần Thơ",,,,,,,,
1234,ChIJ1XZOcM-JoDERhP5uJTC1pdM,Cà Phê Xanh Coffee,Quán cà phê,0783 878 979,"Cà Phê Xanh Coffee, 132D Đ. Nguyễn Văn Cừ, Phường An Khánh, Ninh Kiều, Cần Thơ 900000",,,,,,,,
1236,ChIJ2Xhs-oGJoDERlOcAPoYqjIo,Cà Phê sạch Black Gold - Lụa Coffee,Quán cà phê,,"2QR4+C2P Cà Phê sạch Black Gold - Lụa Coffee, Đ. Tô Hiến Thành, Phường An Khánh, Ninh Kiều, Cần Thơ",,,,,,,,
1242,ChIJqdNwfBOIoDERN_1IF7XJT90,Cà Phê Win,Quán cà phê,,"Cà Phê Win, 136 Đ. Nguyễn Văn Cừ, Phường An Khánh, Ninh Kiều, Cần Thơ",,,,,,,,
1243,ChIJg5ix7iiJoDER1AooWLDEB5c,Mini House tea & coffee,Quán cà phê,0907 830 603,"Mini House tea & coffee, Tổ 4/387/4 Đ. Nguyễn Văn Cừ, Phường An Khánh, Ninh Kiều, Cần Thơ",,,,,,,,
1249,ChIJBYIZdzKJoDERZEJ5xvaMUgk,Cà phê Hạt mang về,Quán cà phê,0388 880 340,"2QH2+XJG Cà phê Hạt mang về, Nguyễn Văn Cừ Nối Dài, Phường An Khánh, Ninh Kiều, Cần Thơ",,,,,,,,
1252,ChIJTQu4ARWJoDERjvTSaaUeaDg,XÓM CÀ PHÊ- HỒNG PHÁT,Quán cà phê,,"XÓM CÀ PHÊ- HỒNG PHÁT, 260 Đ.Xuân Thủy, An Bình, Ninh Kiều, Cần Thơ",,,,,,,,
1253,ChIJTWEVPbKJoDERxW4b2AV9Sv0,Quán Cà Phê Thủy,Quán cà phê,,"2P5X+7JJ Quán Cà Phê Thủy, An Bình, Ninh Kiều, Cần Thơ",,,,,,,,
1259,ChIJofTXIBKJoDEREpyiQaOF8pU,Quán Cà Phê Hải Đăng,Quán cà phê,0292 3911 023,"Quán Cà Phê Hải Đăng, 146A Ấp Mỹ Phước, Huyện Phong Điền, Mỹ Khánh, Phong Điền, Cần Thơ",,,,,,,,
1260,ChIJSXo2ehSJoDERuwFu0_uMnho,Quán Cà Phê Hạnh Nhi,Quán cà phê,0292 3903 928,"Quán Cà Phê Hạnh Nhi, 253 Ấp Mỹ Phước, Huyện Phong Điền, Mỹ Khánh, Phong Điền, Cần Thơ",,,,,,,,
1271,ChIJqWoGIqGJoDERSEOUPnGM6jo,Quán Cà Phê 365,Quán cà phê,0292 3706 007,"Quán Cà Phê 365, 365, Đường Lộ Vòng Cung, Quận Ninh Kiều, An Bình, Ninh Kiều, Cần Thơ",,,,,,,,
1276,ChIJF-og6--JoDERcpaaAQiImqY,Quán cà phê Bảy Bé,Quán cà phê,0919 119 323,"Quán cà phê Bảy Bé, 35/1b Lý Thường Kiệt, Lê Bình, Cái Răng, Cần Thơ",,,,,,,,
1279,ChIJtwiKTUuIoDER5nicJHI91UE,Quán Cà Phê Tấn Thủy,Quán cà phê,0837 189 899,"Quán Cà Phê Tấn Thủy, 167/1A, Quốc Lộ 1A, P. Lê Bình, Quận Cái Răng, Hưng Lợi, Ninh Kiều, Cần Thơ",,,,,,,,
1280,ChIJsz0MlrCJoDERfy9B9Wp0pHQ,Que Anh Coffee Shop,Quán cà phê,0292 3911 728,"Que Anh Coffee Shop, 483A, Area No 1, 3/2 Street, Ninh Kieu District, Can Tho City, Lê Bình, Cái Răng, Cần Thơ",,,,,,,,
1281,ChIJxZOPV76JoDERos20b6U2ZGA,Cà phê Gia Hân,Quán cà phê,0389 291 746,"Cà phê Gia Hân, Hưng Lợi, Ninh Kiều, Cần Thơ",,,,,,,,
1282,ChIJXS09wkeIoDERQXIBCAUC-og,Cà Phê 138,Quán cà phê,0292 3781 358,"Cà Phê 138, 138 Đ. Nguyễn Hiền, Hưng Lợi, Ninh Kiều, Cần Thơ",,,,,,,,
1286,ChIJHQme9zSIoDERv-vQnibt_4o,Cà Phê Phố Đêm,Quán cà phê,0292 3838 476,"Cà Phê Phố Đêm, 124 Đ. 30 Tháng 4, Hưng Lợi, Ninh Kiều, Cần Thơ",,,,,,,,
1287,ChIJC0TV3UeJoDERWc7f04QC70U,Cà Phê Sạch Black Gold - Kim Châu,Quán cà phê,,"Cà Phê Sạch Black Gold - Kim Châu, 586 Hẻm 553, Hưng Lợi, Ninh Kiều, Cần Thơ",,,,,,,,
1288,ChIJXwCYWIWJoDERISgBmAUg8Kw,Cà Phê Sạch Black Gold - Ngọc Bích,Quán cà phê,,"Cà Phê Sạch Black Gold - Ngọc Bích, 118 Đường Trần Hoàng Na, Hưng Lợi, Ninh Kiều, Cần Thơ",,,,,,,,
1290,ChIJQcWIJDWIoDERlfYw09Deobs,Cà Phê Hồng Nghi,Quán cà phê,0947 707 431,"Cà Phê Hồng Nghi, 91 Đ. 30 Tháng 4, Hưng Lợi, Ninh Kiều, Cần Thơ",,,,,,,,
1291,ChIJqY4-QAGJoDERTUQfHcsbRqQ,Cà phê Sake 86,Quán cà phê,,"Cà phê Sake 86, 86 Đ. 3 Tháng 2, Hưng Lợi, Ninh Kiều, Cần Thơ",,,,,,,,
1295,ChIJk4yXWTSIoDERqDyqJl62meE,Quán Cà Phê Timon,Quán cà phê,0292 3508 673,"Quán Cà Phê Timon, 120A, Đường 30/4, Quận Ninh Kiều, Hưng Lợi, Ninh Kiều, Cần Thơ",,,,,,,,
1300,ChIJ0V-RMLGJoDERSX_ZjG6tKao,Cafe Văn Phòng Cửu Long,Quán cà phê,,"2QPC+2Q6 Cafe Văn Phòng Cửu Long, Đ. Cao Thắng, Xuân Khánh, Ninh Kiều, Cần Thơ",,,,,,,,
1301,ChIJG2siIk2JoDERbQRC2yJeu74,Quán cafe tình nhân Tim,Quán cà phê,0939 999 331,"Quán cafe tình nhân Tim, 19 Đ. 3 Tháng 2, Xuân Khánh, Ninh Kiều, Cần Thơ",,,,,,,,
1309,ChIJj2KpRKdioDERSxTwSYqEhXk,After All Coffee,Quán cà phê,0907 159 654,"2QQM+H4W After All Coffee, Hẻm 59 - Đề Thám, An Hội, Ninh Kiều, Cần Thơ",,,,,,,,
1311,ChIJ-5unJoiJoDER8WbbPvk7Yag,Caffe Tĩnh,Quán cà phê,,"Caffe Tĩnh, 1d Dãy A Trần Hoàng Na, Hưng Lợi, Ninh Kiều, Cần Thơ",,,,,,,,
1312,ChIJ-QCHcgOIoDERDhRAyHM6z4M,Quán Cafe 18,Quán cà phê,0292 3761 107,"Quán Cafe 18, 18, Bà Huyện Thanh Quan, Phường Thới Bình, Quận Ninh Kiều, Thành Phố Cần Thơ, Thới Bình, Ninh Kiều, Cần Thơ",,,,,,,,
1313,ChIJ9eRWmGuJoDER0nVNBshPDsQ,Coffee Thu 1984,Quán cà phê,0829 910 182,"Coffee Thu 1984, 184 Đ. Nguyễn Văn Cừ, Phường An Khánh, Ninh Kiều, Cần Thơ",,,,,,,,
1314,ChIJJ7CJ-i-IoDER0eOC1oNy6HM,TN Coffee,Quán cà phê,,"TN Coffee, 259 Đ. 30 Tháng 4, Xuân Khánh, Ninh Kiều, Cần Thơ",,,,,,,,
1315,ChIJkQSkhVSJoDERMvqjsPnFiYY,đi cà phê.,Quán cà phê,,"đi cà phê., 86 Đ. Lê Lai, An Lạc, Ninh Kiều, Cần Thơ",,,,,,,,
1316,ChIJc_lAC8CJoDER-V9Om9KMA50,Coffee Số,Quán cà phê,0901 576 679,"Coffee Số, 213d Nguyễn Thị Minh Khai, Xuân Khánh, Ninh Kiều, Cần Thơ",,,,,,,,
1324,ChIJrVgA_1V9oDERpNvGARxPJKU,Cafe Thảo Vân,Quán cà phê,0939 417 319,"3Q5J+RV9 Cafe Thảo Vân, Đ. Nguyễn Văn Cừ, Cái Khế, Ninh Kiều, Cần Thơ",,,,,,,,
1333,ChIJZXnWRQOIoDERwSafVluhcDY,Tran Thi Kim Tham Coffee Shop,Quán cà phê,0938 682 904,"Tran Thi Kim Tham Coffee Shop, 43B1/1/57, Tran Hung Dao Street, An Cu Ward, Ninh Kieu District, Thới Bình, Ninh Kiều, Cần Thơ",,,,,,,,
1336,ChIJ8bu2c2JjoDERJB6QmglZkfk,Cà phê võng Bờ Kè,Quán cà phê,,"2QWR+VP6 Cà phê võng Bờ Kè, Cái Khế, Ninh Kiều, Cần Thơ",,,,,,,,
1357,ChIJtxjPNRNjoDERMA-tfh4Xxf8,Cà Phê Lâm Bách Phú,Quán cà phê,0907 666 792,"Cà Phê Lâm Bách Phú, Trần Văn Khải, An Hội, Ninh Kiều, Cần Thơ",,,,,,,,
1369,ChIJNev306CJoDERM3Cq0K0ESU0,Hi Coffee,Quán cà phê,,"Hi Coffee, 70A Đ. 3/2, Xuân Khánh, Ninh Kiều, Cần Thơ",,,,,,,,
1374,ChIJXbQNhNaJoDERUIo12FTuXGk,Quán cà phê Anh Tài,Quán cà phê,,"Quán cà phê Anh Tài, 49 Đ. Nguyễn Đệ, An Hoà, Ninh Kiều, Cần Thơ",,,,,,,,
1380,ChIJwQIltBOIoDERQCnMCXpmVrM,Cà Phê Phúc Lợi Võng,Quán cà phê,,"Cà Phê Phúc Lợi Võng, An Khánh, Ninh Kiều, Cần Thơ",,,,,,,,
1384,ChIJjV0ZV26JoDER7bEA9IjFs8Y,MILANO Cofee - Take Away,Quán cà phê,,"MILANO Cofee - Take Away, 390 Nguyễn Văn Cừ Nối Dài, An Bình, Ninh Kiều, Cần Thơ",,,,,,,,
1386,ChIJwSHh92yIoDERCTK_psh9qzk,Cà phê Vạn Xuân,Quán cà phê,,"2QR4+G73 Cà phê Vạn Xuân, Phường An Khánh, Ninh Kiều, Cần Thơ",,,,,,,,
1387,ChIJverWm92JoDERICxzJzfVkIk,Cà phê pha máy an phat coffee,Quán cà phê,0939 195 049,"Cà phê pha máy an phat coffee, 14b Đ. Trần Nam Phú, Phường An Khánh, Ninh Kiều, Cần Thơ",,,,,,,,
1389,ChIJZw8nNauJoDERvTQdE55BLK4,Cà Phê Sạch Black Gold - Oxy Coffee,Quán cà phê,,"2QP5+QGJ Cà Phê Sạch Black Gold - Oxy Coffee, Phường An Khánh, Ninh Kiều, Cần Thơ",,,,,,,,
1390,ChIJn5-1C42JoDERJd0AxOuuTk4,Quán cà phê Bằng Lăng Tím,Quán cà phê,,"2QH6+664 Quán cà phê Bằng Lăng Tím, Đ. Số 7, Phường An Khánh, Ninh Kiều, Cần Thơ",,,,,,,,
1392,ChIJA2cRlUGIoDERNa1jBx5mAEk,Quán Cà Phê Bi Da Phượng,Quán cà phê,0292 3753 297,"Quán Cà Phê Bi Da Phượng, 372 Nguyễn Văn Cừ Nối Dài, Phường An Khánh, Ninh Kiều, Cần Thơ",,,,,,,,
1394,ChIJOVcpbKaJoDER1OSndnB1X9w,Quán Cà Phê KHẢ PHƯƠNG,Quán cà phê,,"2PMX+8JM Quán Cà Phê KHẢ PHƯƠNG, Phường An Khánh, Ninh Kiều, Cần Thơ",,,,,,,,
1395,ChIJyW-AuAqJoDERJ9WjOmJxmuo,Cà Phê Sala,Quán cà phê,0943 587 412,"2QJ2+3PC Cà Phê Sala, Nguyễn Văn Cừ Nối Dài, Phường An Khánh, Ninh Kiều, Cần Thơ",,,,,,,,
1396,ChIJGcfKlEOIoDERrDemSM_vZFs,Quán Cà Phê Ngộ Viện,Quán cà phê,0917 696 566,"2QH2+VFP Quán Cà Phê Ngộ Viện, Nguyễn Văn Cừ Nối Dài, Phường An Khánh, Ninh Kiều, Cần Thơ",,,,,,,,
1397,ChIJlQq5W0GIoDER7AbzYhku_JI,Quán Cà Phê Huyền Trân,Quán cà phê,0709 549 534,"Quán Cà Phê Huyền Trân, 222/6 , Quốc Lộ 91B,, Quận Bình Thủy, Tp Cần Thơ",,,,,,,,
1398,ChIJX4TlUbmJoDERcZlvT68ICjE,Cà Phê Sạch Black Gold - Khả Phương,Quán cà phê,,"Cà Phê Sạch Black Gold - Khả Phương, 345 Đ. Nguyễn Văn Linh, Phường An Khánh, Ninh Kiều, Cần Thơ",,,,,,,,
1402,ChIJpaCTNFGIoDER_hIkVAXhrtY,Cà Phê Mến Thương,Quán cà phê,0987 003 018,"2P9R+X9V Cà Phê Mến Thương, Nguyễn Văn Cừ Nối Dài, An Bình, Ninh Kiều, Cần Thơ",,,,,,,,
1403,ChIJ9y8HvfyJoDERaVnQpG22dGo,Cà Phê Và Giặt Sấy Nhà Tâm,Quán cà phê,0706 824 824,"Cà Phê Và Giặt Sấy Nhà Tâm, 11 Đ. Xuân Hồng, An Bình, Bình Thủy, Cần Thơ",,,,,,,,
1404,ChIJZ5-XwxSJoDERkhKKoNZH6Tg,COFFEE 1999,Quán cà phê,,"COFFEE 1999, 23/6 Nhật Tảo, Lê Bình, Cái Răng, Cần Thơ",,,,,,,,
1407,ChIJaY3U2UeIoDERGRtTTegCo9Y,Quán Cà Phê Trang Hạ,Quán cà phê,,"2QF4+7HF Quán Cà Phê Trang Hạ, Hưng Lợi, Ninh Kiều, Cần Thơ",,,,,,,,
1411,ChIJQTCD16iJoDERu87FCm7zG5c,Quán cà phê Ngọc Lan,Quán cà phê,,"XPW8+Q64 Quán cà phê Ngọc Lan, Chợ, Mỹ Khánh",,,,,,,,
1412,ChIJVzkKTvyIoDERBut4otuFm-c,Quán Cà Phê Phương Đại,Quán cà phê,0919 444 339,"Quán Cà Phê Phương Đại, 271/91B, Khu Vực Bình Phó B, Phường Long Tuyền, Quận Bình Thủy, Long Tuyền, Bình Thủy, Cần Thơ",,,,,,,,
1417,ChIJtdgnnKCJoDERfJSKbI_uwPg,Quán Cà Phê K+ - Bida - Nhạc Sống Kiều Vy,Quán cà phê,0292 3844 928,"Quán Cà Phê K+ - Bida - Nhạc Sống Kiều Vy, 255 Ấp Mỹ Phước, Huyện Phong Điền, An Bình, Ninh Kiều, Cần Thơ",,,,,,,,
1418,ChIJ-zRwmz6JoDERbR31rW33ik4,Cafe LyLy,Quán cà phê,0939 560 662,"Cafe LyLy, 34/1d Nguyễn Việt Dũng, Lê Bình, Cái Răng, Cần Thơ",,,,,,,,
1419,ChIJLR_KkKCJoDERkU8VSNqkysU,Quán Cà Phê Kim Yến,Quán cà phê,0292 3928 732,"Quán Cà Phê Kim Yến, 333 Ấp Mỹ Nhơn, Huyện Phong Điền, An Bình, Ninh Kiều, Cần Thơ",,,,,,,,
1421,ChIJm4sV66CJoDERzK5zIWlyJjw,Quán Cà Phê Bảo Ngọc,Quán cà phê,0292 3849 981,"Quán Cà Phê Bảo Ngọc, 251 Ấp Mỹ Phước, Huyện Phong Điền, An Bình, Ninh Kiều, Cần Thơ",,,,,,,,
1422,ChIJ76WVAq-JoDERYbyZWcwDG-Y,Quán Cà Phê Diễm Châu,Quán cà phê,0292 3097 977,"Quán Cà Phê Diễm Châu, 431, Lộ Vòng Cung, Quận Ninh Kiều, An Bình, Ninh Kiều, Cần Thơ",,,,,,,,
1426,ChIJuc43TLKJoDERf3LoM9PJRZc,Quán Cà Phê Hoàng Ngân,Quán cà phê,0292 3532 102,"Quán Cà Phê Hoàng Ngân, 7, Quốc Lộ 1A, Quận Cái Răng, An Bình, Ninh Kiều, Cần Thơ",,,,,,,,
1430,ChIJUfott7SJoDERsnb6HC55EgQ,Quán Cà Phê 168,Quán cà phê,0292 3913 579,"Quán Cà Phê 168, 168, Khu Vực Yên Hòa, P. Lê Bình, Quận Cái Răng, Hưng Lợi, Ninh Kiều, Cần Thơ",,,,,,,,
1432,ChIJLQbqdc-JoDERokGoV6dBNpU,Cafe Nice,Quán cà phê,,"Cafe Nice, 85 Đ. Nguyễn Hiền, Hưng Lợi, Ninh Kiều, Cần Thơ",,,,,,,,
1434,ChIJcffcyHyJoDERPS-AenEHx_4,Cà phê Bồ Công Anh,Quán cà phê,,"Cà phê Bồ Công Anh, 96 Đ. Nam Cao, Khu dân cư 91B, Ninh Kiều, Cần Thơ",,,,,,,,
1435,ChIJWQgQV9uJoDERMmgUnMTQn3I,Cà phê Phố 91B,Quán cà phê,,"Cà phê Phố 91B, 330 Đ. Nguyễn Văn Linh, Phường An Khánh, Ninh Kiều, Cần Thơ",,,,,,,,
1439,ChIJl3Xk3HdjoDERiEAitZzddzo,Cà Phê Chợ,Quán cà phê,0939 991 678,"Cà Phê Chợ, 97 Phan Đình Phùng, Tân An, Ninh Kiều, Cần Thơ",,,,,,,,
1441,ChIJe-QpvMmJoDERCqIg9UTjQgY,Nhà 102 Coffee,Quán cà phê,0939 258 384,"2Q85+RMV Nhà 102 Coffee, Đ. Trần Hoàng Na, Hưng Lợi, Ninh Kiều, Cần Thơ",,,,,,,,
1443,ChIJoYYRAU2JoDER2ooDcTg07Fw,Cafe Đêm A Minh,Quán cà phê,0939 607 360,"Cafe Đêm A Minh, 451 Đ. 30 Tháng 4, Hưng Lợi, Ninh Kiều, Cần Thơ",,,,,,,,
1449,ChIJEdgvxRiIoDERaAcYhF_4ORA,Cà Phê Lạc Hồng,Quán cà phê,0292 2213 468,"Cà Phê Lạc Hồng, 153g Đ. Trần Hưng Đạo, An Phú, Ninh Kiều, Cần Thơ",,,,,,,,
1451,ChIJDxlfEXuJoDERo2Sz_qwPjvE,Cà Phê Sạch Black Gold - Căn tin TTHL ĐHCT,Quán cà phê,,"Cà Phê Sạch Black Gold - Căn tin TTHL ĐHCT, Cổng A, Khu II, ĐHCT Đ. 3 Tháng 2, Xuân Khánh, Ninh Kiều, Cần Thơ",,,,,,,,
1454,ChIJvbBWqyWIoDERjXVKTl9XdIs,Quán Cà Phê The Girt,Quán cà phê,0292 3739 337,"Quán Cà Phê The Girt, 1 Đ. Trần Văn Hoài, Xuân Khánh, Ninh Kiều, Cần Thơ",,,,,,,,
1456,ChIJRVTCvySIoDER7wRo0jHD4m0,Thao Vy Coffee Shop,Quán cà phê,0913 703 919,"Thao Vy Coffee Shop, 146H, Tran Van Hoai Street, Ninh Kieu District, Can Tho City, Xuân Khánh, Ninh Kiều, Cần Thơ",,,,,,,,
1458,ChIJSVRJmp9ioDERJFd01xU9J9s,Xua Nay Coffee Shop,Quán cà phê,0292 3821 454,"Xua Nay Coffee Shop, 108 Đường Châu Văn Liêm, Tân An, Ninh Kiều, Cần Thơ",,,,,,,,
1463,ChIJVbO2wK5joDERR_FHdjhwWBw,Nước Mía Cà Phê,Quán cà phê,0944 014 894,"Nước Mía Cà Phê, 5 Đ. Ng. Hữu Hạnh, Tân An, Ninh Kiều, Cần Thơ",,,,,,,,
1466,ChIJ2whBf59ioDERVTFpWS0df80,Tiệm Cà Phê Khánh Băng,Quán cà phê,0918 869 385,"Tiệm Cà Phê Khánh Băng, 27 Đ. Đồng Khởi, P, Ninh Kiều, Cần Thơ",,,,,,,,
1467,ChIJyeYSnO6JoDER_xFj5eTUjmk,Piggee Kafe II,Quán cà phê,0795 916 075,"Piggee Kafe II, 100 Đường Đồng Văn Cống, An Thới, Bình Thủy, Cần Thơ, Vietnam Cần Thơ Can Tho City, 940000",,,,,,,,
1468,ChIJhemAjzaJoDERJlseRBoQd6c,Cafe Phố,Quán cà phê,,"Cafe Phố, 256/3B Đ. Nguyễn Văn Cừ, An Hoà, Ninh Kiều, Cần Thơ",,,,,,,,
1469,ChIJQagxi-pjoDERbdUfJ_mopcY,Quán cà phê 002,Quán cà phê,0933 424 002,"Quán cà phê 002, 2 Đ. Ng. Hữu Hạnh, Tân An, Ninh Kiều, Cần Thơ",,,,,,,,
1470,ChIJ68CuoNyJoDERd2iWSIvg1a4,Cà phê Hẻm Tài Xỉu,Quán cà phê,,"Cà phê Hẻm Tài Xỉu, 108, 45 Đ. 30 Tháng 4, An Lạc, Ninh Kiều, Cần Thơ",,,,,,,,
1471,ChIJZbI41FKJoDER2WLAlhOCUFw,Cà phê Trái tim,Quán cà phê,0932 848 383,"2QH6+QPM Cà phê Trái tim, Hồ Búng Xáng, Cần Thơ 900000",,,,,,,,
1472,ChIJ0WpuE5-JoDERPJKDMH-g_rw,Cà phê Đà Lạt,Quán cà phê,,"2PGX+GF8 Cà phê Đà Lạt, Đầu, Đường Số 4, Khu dân cư Hồng Phát, Ninh Kiều, Cần Thơ",,,,,,,,
1473,ChIJx1mbuqSJoDERlsErf06f8uU,Cafe 385,Quán cà phê,0772 546 755,"Cafe 385, 145f Đ. Trần Văn Hoài, Xuân Khánh, Ninh Kiều, Cần Thơ",,,,,,,,
1474,ChIJPeevj66JoDERyZsUCPU4NVA,Cà phê 679.,Quán cà phê,,"2QG6+83H Cà phê 679., Hưng Lợi, Ninh Kiều, Cần Thơ",,,,,,,,
1475,ChIJ551McmWJoDERXxqBN5Im5UY,Cafe,Quán cà phê,,"Cafe, 10 Đ. Lê Bình, Xuân Khánh, Ninh Kiều, Cần Thơ",,,,,,,,
1476,ChIJP0eIZ6BioDERgSSvIilKOIk,Cà Phê 26,Quán cà phê,,"Cà Phê 26, 26 Đ. Nguyễn Khuyến, Tân An, Ninh Kiều, Cần Thơ",,,,,,,,
1477,ChIJa1RSRdZjoDERyoPWmFozlp0,Café,Quán cà phê,,"2RC3+98H Café, Khu Vực I, Phú Thứ, Cái Răng, Cần Thơ",,,,,,,,
1478,ChIJT0qPzqSJoDERzpwaLFnw8H8,Cà phê 90,Quán cà phê,,"Cà phê 90, 90 Đường Trần Hoàng Na, Khu dân cư 91B, Ninh Kiều, Cần Thơ",,,,,,,,
1479,ChIJD0GNczSIoDERIOAj7GlLnyo,Cà Phê 379,Quán cà phê,,"Cà Phê 379, 175B Đ. 30 Tháng 4, Hưng Lợi, Ninh Kiều, Cần Thơ",,,,,,,,
1480,ChIJZQbw-YSJoDERi31qetJNyxM,Cà phê,Quán cà phê,,"Cà phê, 43-24 Đ. Trần Văn Hoài, Xuân Khánh, Ninh Kiều, Cần Thơ",,,,,,,,
1481,ChIJh1PKwTqIoDERg7IFhTYLOhU,Cafe Pi,Quán cà phê,,"Cafe Pi, 9 Đ. Trần Ngọc Quế, Xuân Khánh, Ninh Kiều, Cần Thơ",,,,,,,,
1486,ChIJmX5x30iJoDERllXN5-Rwt4k,Quán Cafe Rang Xây Copha,Quán cà phê,,"Quán Cafe Rang Xây Copha, 204 Đ. Nguyễn Văn Cừ, Phường An Khánh, Ninh Kiều, Cần Thơ",,,,,,,,
1495,ChIJm3MhASWJoDERp5a6iI11Blw,CAFEIN 1987,Quán cà phê,,"CAFEIN 1987, 426 Nguyễn Văn Cừ Nối Dài, An Bình, Ninh Kiều, Cần Thơ",,,,,,,,
1496,ChIJfSVqDe6JoDERb8xJwAXFXPM,Quán Cà Phê 179,Quán cà phê,0902 295 201,"Quán Cà Phê 179, 179 Đ. Nguyễn Văn Cừ, Cái Khế, Ninh Kiều, Cần Thơ",,,,,,,,
1498,ChIJvWNXcwaHoDERkTB-H5ILuMY,Cà Phê & Nước Ép 30/20,Quán cà phê,0393 475 065,"Cà Phê & Nước Ép 30/20, 30/20 Hẻm Số Đỏ, Cái Khế, Ninh Kiều, Cần Thơ",,,,,,,,
1499,ChIJybw6o799oDERqhOJszqgGqo,"Cà phê AE (võng, sân vườn thoáng mát)",Quán cà phê,,"3Q5J+WX7 Cà phê AE (võng, sân vườn thoáng mát), Đ. Nguyễn Văn Cừ, Cái Khế, Ninh Kiều, Cần Thơ",,,,,,,,
1528,ChIJc1uKUf6HoDERAdW9o44Cv9Q,Café - Sinh Tố Huỳnh Hà,Quán cà phê,,"3Q4H+JGC Café - Sinh Tố Huỳnh Hà, Đ. Nguyễn Văn Cừ, Cái Khế, Ninh Kiều, Cần Thơ 900000",,,,,,,,
1531,ChIJVad_lwSIoDERFiH3IEsbU28,Quán Cà Phê Mỹ Toàn,Quán cà phê,0939 466 070,"Quán Cà Phê Mỹ Toàn, 79 Đ. Phạm Ngũ Lão, Thới Bình, Ninh Kiều, Cần Thơ",,,,,,,,
1533,ChIJe2zKnlljoDERCkXkcD4m4yk,Cafe ăn sáng,Quán cà phê,,"Cafe ăn sáng, 3c Sông Hậu, Cái Khế, Ninh Kiều, Cần Thơ",,,,,,,,
1534,ChIJkXiC_S9joDERzpPhLdl1w1A,BOSS Cafe Trà Sữa Ăn Vặt,Quán cà phê,,"2QRV+MHG BOSS Cafe Trà Sữa Ăn Vặt, Sông Hậu, Cái Khế, Ninh Kiều, Cần Thơ",,,,,,,,
1545,ChIJpZ_BqK9ioDERn1yWbrvbC24,Quán Café Tân Tuyền,Quán cà phê,0292 3761 226,"Quán Café Tân Tuyền, 206/41/7, Đường Lê Lợi, Phường Cái Khế, Quận Ninh Kiều, Tp Cần Thơ, Cái Khế, Ninh Kiều, Cần Thơ",,,,,,,,
1548,ChIJv3rixaRioDER4wAfOpnt1OQ,Cà phê sân vườn Hoa Sứ,Quán cà phê,,"Cà phê sân vườn Hoa Sứ, B1 Trần Phú, Cái Khế, Ninh Kiều, Cần Thơ",,,,,,,,
1551,ChIJ4Sj1aCCIoDERoWu4ldBD0cQ,Hai Dang Coffee Shop,Quán cà phê,0292 3810 058,"Hai Dang Coffee Shop, 6, 30/4 Street, Ninh Kieu District, Can Tho City, An Lạc, Ninh Kiều, Cần Thơ",,,,,,,,
1601,ChIJsaIzkpeJoDERW_XMYJpi2bU,Cafe Hương,Quán cà phê,,"Cafe Hương, 2 Đ. Bùi Thị Xuân, An Hội, Ninh Kiều, Cần Thơ",,,,,,,,
1602,ChIJyyt3HXyJoDERuc4wy_A_UjQ,Copha coffee,Quán cà phê,,"Copha coffee, 63 Đ. Phan Đăng Lưu, Thới Bình, Ninh Kiều, Cần Thơ 900000",,,,,,,,
1603,ChIJLeUZoTKJoDERpmTpaDODsKs,Tiệm Cà phê Túi Ba Gang,Quán cà phê,,"Tiệm Cà phê Túi Ba Gang, 54/6/14, 54/6A Hùng Vương, Thới Bình, Ninh Kiều, Cần Thơ",,,,,,,,
1611,ChIJhYs4wEOIoDERCvfGJq1VgKU,Cà Phê Hè Phố,Quán cà phê,0292 3601 234,"Cà Phê Hè Phố, 300 Nguyễn Văn Cừ Nối Dài, Phường An Khánh, Ninh Kiều, Cần Thơ",,,,,,,,
1618,ChIJ8fFiCYeJoDEREsMx8sBpD0E,Cà Phê Ngày Đó,Quán cà phê,,"Cà Phê Ngày Đó, 189 Đ. Nguyễn Văn Cừ, An Hoà, Ninh Kiều, Cần Thơ",,,,,,,,
1619,ChIJSeWgLmeJoDERgbJtuMQw0zo,Tiệm cà phê Cá Hồi,Quán cà phê,0907 890 013,"Tiệm cà phê Cá Hồi, Chung cư A4, Mậu Thân, Đ. Mậu Thân, cũ, Ninh Kiều, Cần Thơ",,,,,,,,
1620,ChIJ8QTT6gOJoDERnEWH0D7VAC4,Cafe Bàn,Quán cà phê,,"Cafe Bàn, 13 Đ. Võ Trường Toản, An Hoà, Ninh Kiều, Cần Thơ",,,,,,,,
1621,ChIJt7I-u0GJoDERkz9bE3gw2zk,Cafe Xưa,Quán cà phê,,"Cafe Xưa, 18 Đ. Võ Trường Toản, An Hoà, Ninh Kiều, Cần Thơ",,,,,,,,
1630,ChIJq6qqBw-IoDERNDS6Ld89WGc,Quán Café Nguyễn,Quán cà phê,0292 3676 513,"Quán Café Nguyễn, 137 Đ. Nguyễn Văn Cừ, An Hoà, Ninh Kiều, Cần Thơ",,,,,,,,
1631,ChIJq6qqBw-IoDER1aWSQSl7qps,Quán Cà Phê Ngọc Hân,Quán cà phê,0947 819 770,"Quán Cà Phê Ngọc Hân, 327, Nguyễn Văn Cừ, Quận Ninh Kiều, Tp Cần Thơ, An Hoà, Ninh Kiều, Cần Thơ",,,,,,,,
1635,ChIJM9gdnp5ioDERKL7fQBGqwG8,Cà Phê 119,Quán cà phê,,"2QGP+QFP Cà Phê 119, Đường Hai Bà Trưng, Tân An, Ninh Kiều, Cần Thơ",,,,,,,,
1636,ChIJi46CrvuJoDERJ200D1_Q8pk,Cà Phê Sạch Black Gold - Têka Coffee,Quán cà phê,,"Cà Phê Sạch Black Gold - Têka Coffee, 36 Đường số 12, Phường An Khánh, Ninh Kiều, Cần Thơ",,,,,,,,
1638,ChIJ_ze_UGyIoDERvXw2SMoSVag,Quán Cà Phê Vy Nguyễn,Quán cà phê,0918 830 535,"Quán Cà Phê Vy Nguyễn, 162 Đường B1, Phường An Khánh, Ninh Kiều, Cần Thơ",,,,,,,,
1642,ChIJKQDjwk-JoDERhlPdcNRXMyE,Cà phê Muối Chú Rắc - CN Nguyễn Văn Cừ,Quán cà phê,,"Cà phê Muối Chú Rắc - CN Nguyễn Văn Cừ, 138/B8, Nguyễn Văn Cừ Nối Dài, Phường An Khánh, Ninh Kiều, Cần Thơ",,,,,,,,
1647,ChIJn2jduDuJoDERHi1bLXbEmpU,cafe 505,Quán cà phê,,"cafe 505, 497 Hẻm 553, Hưng Lợi, Ninh Kiều, Cần Thơ",,,,,,,,
1649,ChIJheKrfBSIoDERWRDhGoQMScU,Quán Cà Phê Bùi Thị Ngọc Minh (Cafe TayDo Model),Quán cà phê,0292 3838 780,"Quán Cà Phê Bùi Thị Ngọc Minh (Cafe TayDo Model), Số 132 K5, Đ. Nguyễn Văn Cừ, Phường An Khánh, Ninh Kiều, Cần Thơ",,,,,,,,
1652,ChIJ6aoAwaeJoDER1pACZiNydJw,Tiệm Cafe Anh,Quán cà phê,,"2QM8+X27 Tiệm Cafe Anh, Hẻm 51, Xuân Khánh, Ninh Kiều, Cần Thơ",,,,,,,,
1656,ChIJs98NN5aJoDERyXUAcgMpL0I,Sữa chua CHICCHU,Quán cà phê,,"Sữa chua CHICCHU, L30 - Đ2,Khu Đô Thị Mới Đại Ngân, Nguyễn Văn Cừ Nối Dài, Phường An Khánh, Ninh Kiều, Cần Thơ",,,,,,,,
1665,ChIJqYdiNveJoDER9QtQ2n_xnp8,CÀ PHÊ HỘI NGỘ,Quán cà phê,0931 070 987,"2QQ5+9W4 CÀ PHÊ HỘI NGỘ, Nguyễn Văn Cừ Nối Dài, Phường An Khánh, Ninh Kiều, Cần Thơ",,,,,,,,
1666,ChIJVVovnxSIoDERH71hz-s7_pw,Quán Cà Phê Như Ngọc,Quán cà phê,0292 3898 838,"Quán Cà Phê Như Ngọc, 163 Nguyễn Văn Cừ Nối Dài, Phường An Khánh, Ninh Kiều, Cần Thơ",,,,,,,,
1667,ChIJ7aHSjEKIoDERLAr475ELpi0,Cà Phê Thy Linh,Quán cà phê,0918 542 872,"Cà Phê Thy Linh, 337 Đ. Nguyễn Văn Linh, Phường An Khánh, Ninh Kiều, Cần Thơ",,,,,,,,
1668,ChIJgeT3NkKIoDER0LI_sBF2lew,Quán Cà Phê HIFI Lá,Quán cà phê,0292 4774 521,"Quán Cà Phê HIFI Lá, 7A8 KDC Thới Nhựt, Quận Ninh Kiều, Tp Cần Thơ, Phường An Khánh, Ninh Kiều, Cần Thơ",,,,,,,,
1671,ChIJ8zQz1zSJoDERe1W805Gm8Ow,Quán cà phê Kim Phượng,Quán cà phê,,"Quán cà phê Kim Phượng, SỐ 2 KDC HỒNG PHÁT, Phường An Khánh, Ninh Kiều, Cần Thơ",,,,,,,,
1672,ChIJIUSD_9iJoDER4D1IS2QSL2M,Cafe Ông Sáu,Quán cà phê,0919 925 265,"Cafe Ông Sáu, 306 Nguyễn Văn Cừ Nối Dài, Phường An Khánh, Ninh Kiều, Cần Thơ",,,,,,,,
1676,ChIJ7YSFxPuJoDERBJfROiSBXVc,Quán Cà Phê PHƯỢNG,Quán cà phê,0909 577 277,"Quán Cà Phê PHƯỢNG, KDC Hàng Bàng, Phường An Khánh, Ninh Kiều, Cần Thơ",,,,,,,,
1684,ChIJBSsn-0KIoDEREztR6PmFjbA,Quán Cà Phê Ngọc Anh,Quán cà phê,0292 6558 034,"Quán Cà Phê Ngọc Anh, 337/13B3, Đường Quốc Lộ 91B, Quận Ninh Kiều, TP.Cần Thơ, Phường An Khánh, Ninh Kiều, Cần Thơ",,,,,,,,
1685,ChIJ5xhDoUKIoDER9bcvzyocTQw,Cà Phê Xuân Mai,Quán cà phê,0292 3559 939,"2PMX+P49 Cà Phê Xuân Mai, QL91B, Phường An Khánh, Ninh Kiều, Cần Thơ",,,,,,,,
1686,ChIJmxAUuEOIoDEROg11ALD3R30,Quán Cà Phê Phú Quý,Quán cà phê,0292 5093 987,"Quán Cà Phê Phú Quý, 113A KDC Thới Nhựt, Quận Ninh Kiều, Tp Cần Thơ, Phường An Khánh, Ninh Kiều, Cần Thơ",,,,,,,,
1687,ChIJP-0_5pCJoDERwKKpF-duyd0,Cà Phê Song Khánh,Quán cà phê,0906 717 417,"Cà Phê Song Khánh, 443 Nguyễn Văn Cừ Nối Dài, An Bình, Ninh Kiều, Cần Thơ 90000",,,,,,,,
1688,ChIJjUarUWuJoDERCvwbRSzyr2Y,Cà Phê Bida Lan Anh,Quán cà phê,0932 840 006,"2P9Q+39C Cà Phê Bida Lan Anh, An Bình, Ninh Kiều, Cần Thơ",,,,,,,,
1689,ChIJY9pStViJoDERx3xfsE1JPRA,Cà phê Hùng Phú,Quán cà phê,0928 720 720,"2PCQ+44G Cà phê Hùng Phú, Đường Số 38, An Bình, Bình Thủy, Cần Thơ",,,,,,,,
1705,ChIJr2h4NeyJoDERo3rF8b5ozkY,Cafe Diem Tam Sang Duc Ky,Quán cà phê,,"2PCR+5JR Cafe Diem Tam Sang Duc Ky, An Bình, Ninh Kiều, Cần Thơ",,,,,,,,
1707,ChIJl32GRLOJoDERdRkSFjpEq6I,Quán Cà Phê Khả Phương,Quán cà phê,0292 3894 837,"Quán Cà Phê Khả Phương, 90A, Quốc Lộ 1A, P. An Bình, Quận Ninh Kiều, An Bình, Ninh Kiều, Cần Thơ",,,,,,,,
1712,ChIJm6wzdxKJoDERAaVk4Oh0hbk,Cafe 5Thiên,Quán cà phê,0399 060 704,"Cafe 5Thiên, 117 Tầm Vu, Hưng Lợi, Ninh Kiều, Cần Thơ",,,,,,,,
1723,ChIJF1kF5byJoDERihQmcvnNdKI,Quán Cà Phê Khánh Trang,Quán cà phê,,"XPVX+MG4 Quán Cà Phê Khánh Trang, Đ. Phạm Hùng, Lê Bình, Cái Răng, Cần Thơ",,,,,,,,
1736,ChIJAQep36CJoDERAKcxUht8CMU,Quán Cà Phê Sơ Ri,Quán cà phê,0292 3847 878,"Quán Cà Phê Sơ Ri, 243 Ấp Mỹ Ái, Huyện Phong Điền, An Bình, Ninh Kiều, Cần Thơ",,,,,,,,
1738,ChIJ10mFZVWJoDERiQ_LBYaHAPU,Cà phê Triệu,Quán cà phê,0969 699 534,"Cà phê Triệu, 107 Đ. 3 Tháng 2, An Bình, Ninh Kiều, Cần Thơ",,,,,,,,
1742,ChIJsfD-JECJoDER6HeProTPPbg,Cafe 4U - Cà phê sạch mang đi,Quán cà phê,0367 479 669,"Cafe 4U - Cà phê sạch mang đi, 1 Đ. 3 Tháng 2, An Bình, Ninh Kiều, Cần Thơ",,,,,,,,
1753,ChIJyxO_RLOJoDERBv2H6nd2Pm4,Quán Cà Phê Hồng,Quán cà phê,0292 3850 518,"Quán Cà Phê Hồng, 117, Quốc Lộ 1A, P. Lê Bình, Quận Cái Răng, An Bình, Ninh Kiều, Cần Thơ",,,,,,,,
1754,ChIJXwI2orOJoDERZsRdW4KHykk,Huynh Nhi Coffee Shop,Quán cà phê,0292 3924 837,"Huynh Nhi Coffee Shop, 92A Area 2, Highway 1A, Cai Rang District, Can Tho City, An Bình, Ninh Kiều, Cần Thơ",,,,,,,,
1755,ChIJBSgwP7KJoDERIxRi3fbVnFQ,Quán Cà Phê Hương Lan,Quán cà phê,0292 2460 587,"Quán Cà Phê Hương Lan, 158/4, Đường Lộ Vòng Cung, Quận Ninh Kiều, An Bình, Ninh Kiều, Cần Thơ",,,,,,,,
1757,ChIJRckksLSJoDER_4kKHavsz2c,Quán Cà Phê Anh Đào,Quán cà phê,0292 2474 394,"Quán Cà Phê Anh Đào, 152/3, Quốc Lộ 1A, P. Lê Bình, Quận Cái Răng, Hưng Lợi, Ninh Kiều, Cần Thơ",,,,,,,,
1758,ChIJV9z3BrGJoDERdUBdB7qmfJM,Phuoc Loc Tho Coffee Shop,Quán cà phê,0292 3094 862,"Phuoc Loc Tho Coffee Shop, 121, Area No 1, 3/2 Street, Ninh Kieu District, Can Tho City, Lê Bình, Cái Răng, Cần Thơ",,,,,,,,
1760,ChIJvfTdDoyJoDER1pbsTk0WdaE,Coffee Ngọc,Quán cà phê nghệ thuật,,"Coffee Ngọc, Mới, F, Đ. Trần Hoàng Na, Hưng Lợi, Ninh Kiều, Cần Thơ 94000",,,,,,,,
1765,ChIJV0vVkzWIoDERjdvgZFS3gYs,Quán Cà Phê Mỹ Tiên,Quán cà phê,0292 6350 181,"Quán Cà Phê Mỹ Tiên, 73, Đường 3/2, Quận Ninh Kiều, Tp Cần Thơ, Hưng Lợi, Ninh Kiều, Cần Thơ",,,,,,,,
1766,ChIJffbbksCJoDERq0hF84kqzOA,QUÁN CÀ PHÊ 1 MÌNH,Quán cà phê,0377 019 269,"QUÁN CÀ PHÊ 1 MÌNH, 133d Hẻm 132 Đ. 3 Tháng 2, Hưng Lợi, Ninh Kiều, Cần Thơ",,,,,,,,
1772,ChIJSYUOWDCIoDER6rkpFqXDf_k,Quán Cà Phê Trung Nguyên Cát Tường,Quán cà phê,0292 3831 541,"Quán Cà Phê Trung Nguyên Cát Tường, 268/62, Đường Nguyễn Văn Linh, Quận Ninh Kiều, Tp Cần Thơ, Hưng Lợi, Ninh Kiều, Cần Thơ",,,,,,,,
1773,ChIJ-Z8z4E-JoDER_NXTcd8-XGQ,Cafe Nguyên Trang,Quán cà phê,,"Cafe Nguyên Trang, 14 Đường Trần Hoàng Na, Hưng Lợi, Ninh Kiều, Cần Thơ",,,,,,,,
1775,ChIJ_WiTluCJoDERbY22Z9rB_vw,Cà phê - Giặt sấy MWT,Quán cà phê,0939 110 157,"Cà phê - Giặt sấy MWT, 68 Hẻm 132 Đ. 3 Tháng 2, Hưng Lợi, Ninh Kiều, Cần Thơ",,,,,,,,
1776,ChIJ6Suf9VmJoDERWoQWlNk7YNM,Cà phê Phương Vinh,Quán cà phê,,"Cà phê Phương Vinh, 151 Đ. Trần Hoàng Na, Hưng Lợi, Ninh Kiều, Cần Thơ",,,,,,,,
1779,ChIJSTt1UVaJoDERXLpAXRiAJgU,Pha cà phê,Quán cà phê,,"Pha cà phê, 660 Đ. 30 Tháng 4, Hưng Lợi, Ninh Kiều, Cần Thơ 90000",,,,,,,,
1780,ChIJ02WNITWIoDER0xKqmuSk33M,Cà Phê Hội Ngộ,Quán cà phê,,"Cà Phê Hội Ngộ, 501 Đ. 30 Tháng 4, Hưng Lợi, Ninh Kiều, Cần Thơ",,,,,,,,
1794,ChIJyegsQjSIoDERrpzdefDMdeI,Quán Cà Phê Khôi Nguyên,Quán cà phê,0292 3738 951,"Quán Cà Phê Khôi Nguyên, 237, Đường 30/04, Quận Ninh Kiều, Tp Cần Thơ, Hưng Lợi, Ninh Kiều, Cần Thơ",,,,,,,,
1799,ChIJZSRn3_qJoDERJRK0VPuyVvY,Cà phê sạch Black Gold - A Lùn,Quán cà phê,,"Cà phê sạch Black Gold - A Lùn, 283k Đ. Nguyễn Văn Linh, Phường An Khánh, Bình Thủy, Cần Thơ",,,,,,,,
1807,ChIJM3mmWSOIoDERkUxRqNTVP9E,Quán Cà Phê Yến Nhi,Quán cà phê,0292 3732 217,"Quán Cà Phê Yến Nhi, 116B, Đường 3/2, Quận Ninh Kiều, Tp Cần Thơ, Xuân Khánh, Ninh Kiều, Cần Thơ",,,,,,,,
1808,ChIJt4MUeqSJoDERkgzMz79Xlqk,Quán Cà phê An Nguyên,Quán cà phê,0901 599 006,"Quán Cà phê An Nguyên, 10 Đ. Mạc Thiên Tích, Xuân Khánh, Ninh Kiều, Cần Thơ",,,,,,,,
